IPEDSID,NAME,CITY,STATE,COUNTY,COUNTRY,LATITUDE,LONGITUDE,WEBSITE
133872,Adventhealth University,Orlando,FL,Orange,United States,28.576141693000068,-81.36768715399995,ahu.edu
487445,Florida Career College-Boynton Beach,Boynton Beach,FL,Palm Beach,United States,26.542857268000034,-80.09219037499997,floridacareercollege.edu
450711,Trend Barber College,Houston,TX,Harris,United States,30.01314587500008,-95.44840231499995,trendbarbercollege.com
443784,Strayer University-Pennsylvania,Trevose,PA,Bucks,United States,40.13962069400003,-74.96301849199995,strayer.edu/campus-locations/pennsylvania/lower-bucks-county
486734,Jolie Health & Beauty Academy-Cherry Hill,Cherry Hill,NJ,Camden,United States,39.880220552000026,-75.00528053499994,jolieacademy.com
486372,San Francisco Film School,San Francisco,CA,San Francisco,United States,37.78219334300008,-122.40679160199994,filmschoolsf.com
148256,Rend Lake College,Ina,IL,Jefferson,United States,38.13148101100006,-88.91828310799997,rlc.edu
149727,Waubonsee Community College,Sugar Grove,IL,Kane,United States,41.798044,-88.458796,waubonsee.edu
204015,Miami University-Middletown,Middletown,OH,Butler,United States,39.523776,-84.35724,miamioh.edu/regionals
488004,Central Yeshiva Beth Joseph,Brooklyn,NY,Kings,United States,40.615475,-73.959376,centralyeshivabethjoseph.com
224660,Western Technical College,El Paso,TX,El Paso,United States,31.877798854000048,-106.42589093599996,westerntech.edu
488934,Tulsa Technology Center,Tulsa,OK,Tulsa,United States,36.11294833400007,-95.88908942799998,tulsatech.edu
454236,Chamberlain University-Ohio,Columbus,OH,Franklin,United States,39.94044891600004,-82.94049278499995,chamberlain.edu
206288,United Theological Seminary,Dayton,OH,Montgomery,United States,39.813461594000046,-84.27691342899999,united.edu
239743,Holy Family College,Manitowoc,WI,Manitowoc,United States,44.07103812100007,-87.74296135099996,NOT AVAILABLE
153001,Buena Vista University,Storm Lake,IA,Buena Vista,United States,42.64225417700004,-95.20851103899996,bvu.edu
108232,Academy Of Art University,San Francisco,CA,San Francisco,United States,37.78774752900006,-122.40068563799996,academyart.edu
212443,Evangelical Theological Seminary,Myerstown,PA,Lebanon,United States,40.372980994000045,-76.30625154399996,evangelical.edu
171100,Michigan State University,East Lansing,MI,Ingham,United States,42.72476,-84.473639,msu.edu
213321,King'S College,Wilkes-Barre,PA,Luzerne,United States,41.24888894500003,-75.87803192899997,kings.edu
221519,The University Of The South,Sewanee,TN,Franklin,United States,35.204429866000055,-85.91777190299996,sewanee.edu
223773,Cedar Valley College,Lancaster,TX,Dallas,United States,32.62568620500008,-96.76342092999994,NOT AVAILABLE
223816,Central Texas College,Killeen,TX,Coryell,United States,31.119054,-97.809704,ctcd.edu
109350,Antelope Valley College,Lancaster,CA,Los Angeles,United States,34.67620732600005,-118.186166454,avc.edu
117645,Long Beach City College,Long Beach,CA,Los Angeles,United States,33.83174134700005,-118.13581931699996,lbcc.edu
474924,Avalon School Of Cosmetology-Layton,Layton,UT,Davis,United States,41.08991640600004,-112.00364011699996,avalon.edu/locations/layton-ut
102711,Alaska Vocational Technical Center,Seward,AK,Kenai Peninsula,United States,60.111047,-149.44423,avtec.edu
155830,Salina Area Technical College,Salina,KS,Saline,United States,38.79359702300008,-97.63687391499997,salinatech.edu
478953,Bellus Academy,Manhattan,KS,Riley,United States,39.19167679100008,-96.60841296299998,bellusacademy.edu
479956,Pennsylvania State University-World Campus,University Park,PA,Centre,United States,40.832757,-77.841748,worldcampus.psu.edu
199759,Southeastern Baptist Theological Seminary,Wake Forest,NC,Wake,United States,35.98077105400006,-78.51250039499996,sebts.edu
233541,Shenandoah University,Winchester,VA,Winchester City,United States,39.16605804700004,-78.15837590299998,su.edu
204024,Miami University-Oxford,Oxford,OH,Butler,United States,39.509641560000034,-84.73182111699998,miamioh.edu
220163,The Hair Academy Llc,Fayetteville,TN,Lincoln,United States,35.15266234600006,-86.57216436099998,thehairacademy.net
225511,University Of Houston,Houston,TX,Harris,United States,29.719988,-95.344851,uh.edu
239628,Ripon College,Ripon,WI,Fond Du Lac,United States,43.842383,-88.8426,ripon.edu
218690,University Of South Carolina-Sumter,Sumter,SC,Sumter,United States,33.933434480000074,-80.37381491099995,sc.edu/about/system_and_campuses/sumter/index.php
407832,Warren County Career Center,Lebanon,OH,Warren,United States,39.48877180800002,-84.20296874599995,mywccc.org
483896,Parisian Spa Institute,Jacksonville,FL,Duval,United States,30.31323335600007,-81.67761517599996,psijax.edu
228547,Tarrant County College District,Fort Worth,TX,Tarrant,United States,32.74750093700004,-97.327948441,tccd.edu
484109,Paul Mitchell The School-Merrillville,Merrillville,IN,Lake,United States,41.473643784000046,-87.33658447399995,paulmitchell.edu/merrillville
230834,Castleton University,Castleton,VT,Rutland,United States,43.60808865300004,-73.18155734999993,castleton.edu
138275,Warner University,Lake Wales,FL,Polk,United States,27.825751489000027,-81.59997248299999,warner.edu/academics/undergraduate_programs/admissions/criteria-for-admission
165264,Laboure College,Milton,MA,Norfolk,United States,42.260691,-71.058397,laboure.edu/about-labour-
482936,Florida Polytechnic University,Lakeland,FL,Polk,United States,28.150476853000043,-81.85127356099997,floridapoly.edu
452081,Ross College-Sylvania,Sylvania,OH,Lucas,United States,41.713629,-83.680485,rosseducation.edu
107619,Phillips Community College Of The University Of Arkansas,Helena,AR,Phillips,United States,34.544976,-90.617745,pccua.edu
197027,United States Merchant Marine Academy,Kings Point,NY,Nassau,United States,40.812154,-73.762534,usmma.edu
115287,Grossmont-Cuyamaca Community College District,El Cajon,CA,San Diego,United States,32.81605377500006,-117.00729196499998,gcccd.edu
148937,Southeastern Illinois College,Harrisburg,IL,Saline,United States,37.751698875000045,-88.43459166099996,sic.edu
445850,Kenneth Shuler School Of Cosmetology-Columbia,Columbia,SC,Richland,United States,33.964546023000025,-80.94192072399994,kennethshuler.com
457086,Homestead Schools,Torrance,CA,Los Angeles,United States,33.80857255300003,-118.350152252,homesteadschools.net
227331,Our Lady Of The Lake University,San Antonio,TX,Bexar,United States,29.425610935000066,-98.54395030199998,ollusa.edu
238980,Lakeland University,Plymouth,WI,Sheboygan,United States,43.841263526000034,-87.88434666599994,lakeland.edu
377449,Centura College-Newport News,Newport News,VA,Newport News City,United States,37.13929372000007,-76.51805961299993,centuracollege.edu/campuses/newport-news
181738,Union College,Lincoln,NE,Lancaster,United States,40.77477787300006,-96.65109507699998,ucollege.edu
455354,Aveda Arts & Sciences Institute-San Antonio,San Antonio,TX,Bexar,United States,29.637354,-98.452126,avedaarts.edu
456001,Advanced Welding Institute,South Burlington,VT,Chittenden,United States,44.455879786000025,-73.13943653599995,awi.edu
151290,Indiana Institute Of Technology,Fort Wayne,IN,Allen,United States,41.07833776300004,-85.11795026599998,indianatech.edu
240736,American Samoa Community College,Pago Pago,AS,Western,United States,-14.323171423999952,-170.74317458499996,amsamoa.edu
407009,Arizona State University-West,Glendale,AZ,Maricopa,United States,33.60898,-112.158935,asu.edu
198677,Heritage Bible College,Dunn,NC,Harnett,United States,35.26827843800004,-78.61267685299998,heritagebiblecollege.edu
199689,Paul Mitchell The School-Fayetteville,Fayetteville,NC,Cumberland,United States,35.069985,-78.957561,paulmitchell.edu/fayetteville
241720,Colegio Universitario De San Juan,San Juan,PR,San Juan,United States,18.428527969000072,-66.06652882099996,cunisanjuan.edu
121275,Platt College-San Diego,San Diego,CA,San Diego,United States,32.76372956900008,-117.06348304499994,platt.edu
418409,York County School Of Technology-Adult & Continuing Education,York,PA,York,United States,39.92988692900008,-76.68544900899997,ytech.edu
439668,Hds Truck Driving Institute,Tucson,AZ,Pima,United States,32.138870490000045,-110.856473839,hdstruckdrivinginstitute.com
457527,Ambria College Of Nursing,Hoffman Estates,IL,Cook,United States,42.075613205000025,-88.21088786399997,ambria.edu
192192,Keuka College,Keuka Park,NY,Yates,United States,42.61525325900004,-77.09056246699998,keuka.edu
455910,Center For Massage,Asheville,NC,Buncombe,United States,35.594020225000065,-82.55064714299994,centerformassage.com
101116,South University-Montgomery,Montgomery,AL,Montgomery,United States,32.34274096200005,-86.21646851199995,"southuniversity.edu/montgomery#location=Montgomery, AL"
117557,Lincoln University,Oakland,CA,Alameda,United States,37.80478781200003,-122.26974493999997,lincolnuca.edu
107080,Hendrix College,Conway,AR,Faulkner,United States,35.09971967400003,-92.44202071599994,hendrix.edu
139393,Covenant College,Lookout Mountain,GA,Dade,United States,34.96332718900004,-85.37495977899994,covenant.edu
236948,University Of Washington-Seattle Campus,Seattle,WA,King,United States,47.655775179000045,-122.310802164,washington.edu
442444,San Joaquin Valley College-Ontario,Ontario,CA,San Bernardino,United States,34.06851794000005,-117.55037087399997,sjvc.edu
442781,Tohono O'Odham Community College,Sells,AZ,Pima,United States,31.989869,-111.715445,tocc.edu
447263,Ameritech College-Draper,Draper,UT,Salt Lake,United States,40.52793248000006,-111.89279182899998,ameritech.edu
227757,Rice University,Houston,TX,Harris,United States,29.716218473000023,-95.40497686699996,rice.edu
152080,University Of Notre Dame,Notre Dame,IN,St. Joseph,United States,41.699587,-86.237075,nd.edu
229780,Wayland Baptist University,Plainview,TX,Hale,United States,34.18673010700007,-101.72572830899998,wbu.edu
234076,University Of Virginia-Main Campus,Charlottesville,VA,Albemarle,United States,38.033977,-78.511845,virginia.edu
375726,Kiamichi Technology Center-Mcalester,Mcalester,OK,Pittsburg,United States,34.92417282800005,-95.74599915799996,ktc.edu
380465,University Of Phoenix-Utah,Salt Lake City,UT,Salt Lake,United States,40.65383523600008,-111.90447443499994,phoenix.edu
443128,International Technological University,Santa Clara,CA,Santa Clara,United States,37.388805,-121.930923,itu.edu
148335,Robert Morris University Illinois,Chicago,IL,Cook,United States,41.87627798400007,-87.62706760899994,robertmorris.edu
208725,New Hope Christian College-Eugene,Eugene,OR,Lane,United States,44.03267435000004,-123.15355044499996,newhope.edu
211024,Clarks Summit University,Clarks Summit,PA,Lackawanna,United States,41.49619673600006,-75.68423382899994,clarkssummitu.edu
437325,Linfield University-Online And Continuing Education,Mcminnville,OR,Yamhill,United States,45.20133554400008,-123.20044997599996,linfield.edu/academics/oce/index.html
192864,Marymount Manhattan College,New York,NY,New York,United States,40.76872266200007,-73.95979000699998,mmm.edu
475608,Criswell College,Dallas,TX,Dallas,United States,32.79351252200007,-96.77669016599998,criswell.edu
443225,Pc Age-Metropark,Iselin,NJ,Middlesex,United States,40.561771,-74.325692,pcage.edu
449490,Palm Beach Academy Of Health & Beauty,Lake Park,FL,Palm Beach,United States,26.80362072500003,-80.07497929899995,pbacademy.net
451866,Remington College-Shreveport Campus,Shreveport,LA,Caddo,United States,32.40316615000006,-93.79357819899997,remingtoncollege.edu/shreveport-career-school-overview
115931,Institute For Business And Technology,Santa Clara,CA,Santa Clara,United States,37.36864167500005,-121.96954057299996,ibt.edu
134024,Florida School Of Massage,Gainesville,FL,Alachua,United States,29.593428094000046,-82.33827308599996,floridaschoolofmassage.com
169734,Dorsey School Of Business-Madison Heights,Madison Heights,MI,Oakland,United States,42.525328528000045,-83.10819382599999,dorsey.edu
178989,Research College Of Nursing,Kansas City,MO,Jackson,United States,39.00874700500003,-94.55808696399998,researchcollege.edu
123855,St John'S Seminary,Camarillo,CA,Ventura,United States,34.24392093400007,-119.00186684899997,stjohnsem.edu
150251,College Of Court Reporting Inc,Valparaiso,IN,Porter,United States,41.467574,-87.066331,ccr.edu
184791,Rowan College Of South Jersey Gloucester Campus,Sewell,NJ,Gloucester,United States,39.78141805500008,-75.12100639199997,rcsj.edu
186469,Salem Community College,Carneys Point,NJ,Salem,United States,39.69854920700004,-75.46968098699995,salemcc.edu
407407,Capri Institute Of Hair Design-Kenilworth,Kenilworth,NJ,Union,United States,40.68891248300002,-74.29462042699998,capriinstitute.com
215619,Reconstructionist Rabbinical College,Wyncote,PA,Montgomery,United States,40.08768888800006,-75.14950576199993,rrc.edu
191205,Five Towns College,Dix Hills,NY,Suffolk,United States,40.79450609100007,-73.36934763899995,ftc.edu
491084,Unitech Training Academy-Baton Rouge,Baton Rouge,LA,East Baton Rouge,United States,30.417249,-91.063,unitechtrainingacademy.com
491570,Institute Of Medical Ultrasound,Atlanta,GA,Fulton,United States,33.76012644600007,-84.38732262099995,imu.edu
493628,Pro Beauty Academy,Edison,NJ,Middlesex,United States,40.571036,-74.340019,probeautyacademy.com
496210,Columbia College - Springfield Tmobile,Springfield,MO,Greene,United States,37.24688030400006,-93.345624591,NOT AVAILABLE
495235,Total Beauty Institute,Jacksonville,FL,Duval,United States,30.37207302400003,-81.65784845299999,totalbeautyinstitute.com
495262,Premiere Aesthetics Institute,Bend,OR,Deschutes,United States,44.04193743500008,-121.337340725,premiereaestheticsinstitute.com
495350,Paul Mitchell The School-Reno-North Tahoe,Truckee,CA,Nevada,United States,39.32474240200003,-120.22186418399995,paulmitchell.edu/northtahoe
495545,National University College - Pembroke Pines,Pembroke Pines,FL,Broward,United States,26.005827344000068,-80.31528849399996,NOT AVAILABLE
495615,Nuc University - Ibc Institute - Mayag?Ez,Mayaguez,PR,Mayagüez,United States,18.162131058000057,-67.14447559399997,NOT AVAILABLE
495952,San Joaquin Valley College-Rancho Mirage,Rancho Mirage,CA,Riverside,United States,33.79864597300008,-116.39082214899996,sjvc.edu
496131,San Jacinto Community College District - Generation Park Campus,Houston,TX,Harris,United States,29.91866172300007,-95.21292731299997,NOT AVAILABLE
496292,Platt College-Miller-Motte College-Chattanooga 2,Chattangooga,TN,Hamilton,United States,35.09241094000004,-85.24034938599993,miller-motte.edu
496414,Techsherpas 365,Tampa,FL,Hillsborough,United States,28.04239826300005,-82.56585793899995,techsherpas.com
486576,Ppg Technical College,Caguas,PR,Caguas,United States,18.24636626600005,-66.03558086699996,ppg.edu
469911,Unitech Training Academy-Alexandria,Alexandria,LA,Rapides,United States,31.322493525000027,-92.53468464099996,unitechtrainingacademy.com
486512,Florida International Training Institute,Miami,FL,Miami-Dade,United States,25.79792475200003,-80.31472258499997,fitischools.com
486497,California Barber And Beauty College,San Diego,CA,San Diego,United States,32.75722,-117.081321,californiabarberandbeauty.com
105668,Rio Salado College,Tempe,AZ,Maricopa,United States,33.41276429100003,-111.97405283499997,rio.maricopa.edu
489937,Carolina University,Winston-Salem,NC,Forsyth,United States,36.087962,-80.250153,carolinau.edu
488439,Kenny'S Academy Of Barbering,Indianapolis,IN,Marion,United States,39.79644,-86.207551,kennysacademy.com
186131,Princeton University,Princeton,NJ,Mercer,United States,40.34714142100006,-74.65769781299997,princeton.edu
210711,The Beauty Institute,Allentown,PA,Lehigh,United States,40.62585532500003,-75.42678049799997,thebeautyinstituteskp.edu
199795,Tri-County Community College,Murphy,NC,Cherokee,United States,35.06702093000007,-83.96647559099995,tricountycc.edu
199908,Western Piedmont Community College,Morganton,NC,Burke,United States,35.722875542000054,-81.68734479299997,wpcc.edu
201159,Auburn Career Center,Concord Twp,OH,Lake,United States,41.64923774700003,-81.24379802399994,auburncc.org
459967,Southern Careers Institute-Brownsville,Brownsville,TX,Cameron,United States,25.93638244500005,-97.50087076199998,scitexas.edu
226383,Lubbock Christian University,Lubbock,TX,Lubbock,United States,33.576272989000074,-101.934816486,lcu.edu
158431,Bossier Parish Community College,Bossier City,LA,Bossier,United States,32.539551352000046,-93.64688146899994,bpcc.edu
165884,Benjamin Franklin Institute Of Technology,Boston,MA,Suffolk,United States,42.34602254400005,-71.07023066799997,bfit.edu
221485,Southwest Tennessee Community College,Memphis,TN,Shelby,United States,35.13757662900008,-90.03654276999998,southwest.tn.edu
226277,Lincoln College Of Technology-Grand Prairie,Grand Prairie,TX,Tarrant,United States,32.701683641000045,-97.05639117299997,lincolntech.edu/campus/grand-prairie-tx
451714,Paul Mitchell The School-San Antonio,San Antonio,TX,Bexar,United States,29.490889777000064,-98.58483125299996,paulmitchell.edu/sanantonio
202152,Columbiana County Career And Technical Center,Lisbon,OH,Columbiana,United States,40.76772885900005,-80.74814620799998,ccctc.k12.oh.us
476179,Empire Beauty School-Virginia Beach,Virginia Beach,VA,Virginia Beach City,United States,36.83858555500007,-76.13552729699995,empire.edu
201539,Canton City Schools Adult Career And Technical Education,Canton,OH,Stark,United States,40.826156,-81.325174,ccsdistrict.org/site/default.aspx?PageID=189
206914,Cameron University,Lawton,OK,Comanche,United States,34.60648738900005,-98.43416335999996,cameron.edu
221847,Tennessee Technological University,Cookeville,TN,Putnam,United States,36.174659174000055,-85.50395686399997,tntech.edu
223232,Baylor University,Waco,TX,Mclennan,United States,31.546149574000022,-97.11845257999994,baylor.edu
229814,West Texas A & M University,Canyon,TX,Randall,United States,34.981563556000026,-101.91575877599996,wtamu.edu
204820,Ohio University-Chillicothe Campus,Chillicothe,OH,Ross,United States,39.32817355800006,-83.00531926199994,ohio.edu/chillicothe
213987,Mercyhurst University,Erie,PA,Erie,United States,42.103990846000045,-80.05556795499996,mercyhurst.edu
375656,Chisholm Trail Technology Center,Omega,OK,Kingfisher,United States,35.842115,-98.201672,cttc.edu
484613,University Of Phoenix-Arizona,Phoenix,AZ,Maricopa,United States,33.40207556200005,-111.96616608099998,phoenix.edu
484765,University Of Phoenix-Virginia,Virginia Beach,VA,Henrico,United States,37.64256075100008,-77.56349604599995,phoenix.edu
110413,California Lutheran University,Thousand Oaks,CA,Ventura,United States,34.22456556900005,-118.878924483,callutheran.edu
131283,The Catholic University Of America,Washington,DC,District Of Columbia,United States,38.93579560500007,-76.99896138699995,catholic.edu
142054,Carrington College-Boise,Boise,ID,Ada,United States,43.61593492200007,-116.26057127099996,carrington.edu
145831,Illinois Valley Community College,Oglesby,IL,Lasalle,United States,41.30652,-89.102036,ivcc.edu
414063,Artistic Academy Of Hair Design,Morris Plains,NJ,Morris,United States,40.85558875100003,-74.48640520799995,artisticacademy.com
365383,Wilkes-Barre Area Career And Technical Center Practical Nursing,Wilkes Barre,PA,Luzerne,United States,41.26215359500003,-75.81012073999995,wbpracnsg.com
133155,Lorenzo Walker Technical College,Naples,FL,Collier,United States,26.14114076100003,-81.76356817299995,lwtc.edu
150534,University Of Evansville,Evansville,IN,Vanderburgh,United States,37.97176339000004,-87.53237940599996,evansville.edu
168591,Alma College,Alma,MI,Gratiot,United States,43.379236364000064,-84.67007272699999,alma.edu
164146,University System Of Maryland,Baltimore,MD,Baltimore City,United States,39.286064,-76.605568,usmd.edu
166656,Mcphs University,Boston,MA,Suffolk,United States,42.33703600600006,-71.10096442099996,mcphs.edu
173160,Bethel University,Saint Paul,MN,Ramsey,United States,45.057834582000055,-93.16036575699997,bethel.edu
177685,Paul Mitchell The School-Missouri Columbia,Columbia,MO,Boone,United States,38.969221653000034,-92.31041727699994,missouricolumbia.paulmitchell.edu
418427,Chester County Intermediate Unit,Downingtown,PA,Chester,United States,40.005702,-75.679814,chestercountynursing.org
199139,University Of North Carolina At Charlotte,Charlotte,NC,Mecklenburg,United States,35.306834105000064,-80.73579016799994,uncc.edu
454935,Evans Hairstyling College-Rexburg,Rexburg,ID,Madison,United States,43.82471599400003,-111.81237196099994,evanshairstylingcollege.com
456852,San Joaquin Valley College-Hesperia,Hesperia,CA,San Bernardino,United States,34.420760277000056,-117.38316309399994,sjvc.edu
240985,Educational Technical College-Recinto De Bayamon,Bayamon,PR,Bayamón,United States,18.39540977300004,-66.15947194099994,edutecpr.com
438285,Cortiva Institute-Maitland,Maitland,FL,Orange,United States,28.629921429000035,-81.39717942399994,cortiva.edu
125231,Walden University,Minneapolis,MN,Hennepin,United States,44.98119483700003,-93.26581548199994,waldenu.edu
188942,Associated Beth Rivkah Schools,Brooklyn,NY,Kings,United States,40.66606864900007,-73.94978075799997,dhl.bethrivkah.edu
219903,Concorde Career College-Memphis,Memphis,TN,Shelby,United States,35.11219137400008,-89.89209334899994,concorde.edu/campus/memphis-tennessee
201751,Chatfield College,Saint Martin,OH,Brown,United States,39.21036907200005,-83.88715295799994,chatfield.edu
203720,Ohio Business College-Sheffield,Sheffield Village,OH,Lorain,United States,41.42372459200004,-82.07346405799996,ohiobusinesscollege.edu
218867,Sumter Beauty College,Sumter,SC,Sumter,United States,33.945164711000075,-80.35081318499994,sumterbeautycollege.com
458007,Love Beauty School Inc,Manchester,TN,Coffee,United States,35.488523514000065,-86.09386315699999,lovebeautyschool.net
179265,University Of Health Sciences And Pharmacy In St. Louis,Saint Louis,MO,St. Louis City,United States,38.636659087000055,-90.26162561599996,uhsp.edu
194392,Paul Smiths College Of Arts And Science,Paul Smiths,NY,Franklin,United States,44.437366,-74.253006,paulsmiths.edu
196033,Suny College Of Agriculture And Technology At Cobleskill,Cobleskill,NY,Schoharie,United States,42.674335,-74.497352,cobleskill.edu
102669,Alaska Pacific University,Anchorage,AK,Anchorage,United States,61.19123518300006,-149.80424188299995,alaskapacific.edu
107743,University Of Arkansas Community College Rich Mountain,Mena,AR,Polk,United States,34.59144869600004,-94.21979901799996,uarichmountain.edu
461306,D A Dorsey Technical College,Miami,FL,Miami-Dade,United States,25.839581672000065,-80.22572499699999,dadorsey.dadeschools.net
233408,Riverside College Of Health Careers,Newport News,VA,Newport News City,United States,37.03523445100007,-76.45634463,riverside.edu
221397,Roane State Community College,Harriman,TN,Roane,United States,35.88129050300006,-84.62076583699996,roanestate.edu
123925,State Center Community College District,Fresno,CA,Fresno,United States,36.76886523100006,-119.79258540799998,scccd.edu
211468,Cedar Crest College,Allentown,PA,Lehigh,United States,40.58690928800007,-75.52000399899998,cedarcrest.edu
228149,St. Mary'S University,San Antonio,TX,Bexar,United States,29.45313482900008,-98.56128970299994,stmarytx.edu
369686,Northwest Educational Center,Houston,TX,Harris,United States,29.814255,-95.473166,nwec.edu
382957,Fortis College-Richmond,Richmond,VA,Henrico,United States,37.58153733600005,-77.48845476399998,fortis.edu
110219,Bryan University,Tempe,AZ,Maricopa,United States,33.437715,-111.94444,bryanuniversity.edu
125170,Berkeley City College,Berkeley,CA,Alameda,United States,37.86976853500005,-122.26987666899998,berkeleycitycollege.edu/wp
153764,La James International College-Johnston,Johnston,IA,Polk,United States,41.66101174600004,-93.73838621999994,ljic.edu
241146,American Educational College,Bayamon,PR,Bayamón,United States,18.396941584000047,-66.14686604299999,amedcopr.com
405997,University Of Phoenix-New Mexico,Albuquerque,NM,Bernalillo,United States,35.19713738400003,-106.58029206899994,phoenix.edu
120883,University Of The Pacific,Stockton,CA,San Joaquin,United States,37.97976739400008,-121.30923764,pacific.edu
154378,Southeastern Community College,West Burlington,IA,Des Moines,United States,40.81472574500003,-91.17239404499998,scciowa.edu
172264,Siena Heights University,Adrian,MI,Lenawee,United States,41.90578232800004,-84.01527996499999,sienaheights.edu
214698,Pennsylvania State University-Penn State Beaver,Monaca,PA,Beaver,United States,40.67825383900004,-80.29623487599997,beaver.psu.edu
125727,Westmont College,Santa Barbara,CA,Santa Barbara,United States,34.449474001000056,-119.66222655299998,westmont.edu
118976,Modesto Junior College,Modesto,CA,Stanislaus,United States,37.65204174300004,-121.009723,mjc.edu
439491,Blue Cliff College-Lafayette,Lafayette,LA,Lafayette,United States,30.18456077700006,-92.01574062699996,bluecliffcollege.edu
444194,Bayamon Community College,Bayamon,PR,Bayamón,United States,18.398780713000065,-66.15567843399998,bccpr.org
445498,Colegio Tecnico De Electricidad Galloza,Aguada,PR,Aguada,United States,18.350821,-67.160809,ctegpr.com/CTEG_Web
152673,Wabash College,Crawfordsville,IN,Montgomery,United States,40.03703023100008,-86.90781111599995,wabash.edu
166683,Massachusetts Institute Of Technology,Cambridge,MA,Middlesex,United States,42.36009534400006,-71.09211458099998,web.mit.edu
160977,Bates College,Lewiston,ME,Androscoggin,United States,44.105299184000046,-70.20333261999997,bates.edu
171456,Northern Michigan University,Marquette,MI,Marquette,United States,46.55803663900008,-87.40385725099998,nmu.edu
175078,Southwest Minnesota State University,Marshall,MN,Lyon,United States,44.45454662800006,-95.75899725799997,smsu.edu
180151,Dawson Community College,Glendive,MT,Dawson,United States,47.08539614000006,-104.72548542299997,dawson.edu
200314,Dakota College At Bottineau,Bottineau,ND,Bottineau,United States,48.832505197000046,-100.441102614,dakotacollege.edu
143543,Empire Beauty School-Hanover Park,Hanover Park,IL,Dupage,United States,41.97747120200006,-88.13563052199999,empire.edu
177214,Drury University,Springfield,MO,Greene,United States,37.219680768000046,-93.28619178499996,drury.edu
198756,Johnson C Smith University,Charlotte,NC,Mecklenburg,United States,35.24303258600003,-80.85725120399997,jcsu.edu
490063,Southern States University,San Diego,CA,San Diego,United States,32.767661641000075,-117.20153537899996,ssu.edu
490203,Bolivar Technical College,Bolivar,MO,Polk,United States,37.62389583300006,-93.42162523499996,bolivarcollege.org
490267,Master'S Barber & Styling College,Old Hickory,TN,Wilson,United States,36.21966429200006,-86.57137476499997,mastersbarbercollege.edu
492722,The College Of Health Care Professions-South San Antonio,San Antonio,TX,Bexar,United States,29.356193205000068,-98.52483566599994,chcp.edu
493789,Shear Perfection Academy Of Cosmetology,Nashville,TN,Davidson,United States,36.04762,-86.709812,spanash.com
494375,Strayer University - Decatur Campus,Decatur,AL,Morgan,United States,34.60167330400003,-86.98550820299994,NOT AVAILABLE
494490,Arizona State University - Yavapai College Prescott Valley Campus,Prescott Valley,AZ,Yavapai,United States,34.59775480300004,-112.34313607599996,NOT AVAILABLE
494560,Guidance College,Houston,TX,Harris,United States,29.76086990600004,-95.70390751399998,guidancecollege.org
494834,Educational Technical College,Lares,PR,Lares,United States,18.29480930400007,-66.87726620299998,edutecpr.com
243601,Universidad Ana G. Mendez-Gurabo Campus,Gurabo,PR,Gurabo,United States,18.239647,-66.006259,gurabo.uagm.edu
157863,Union College,Barbourville,KY,Knox,United States,36.86913017400008,-83.88776808799997,unionky.edu
192110,The Juilliard School,New York,NY,New York,United States,40.773725,-73.982913,juilliard.edu
486327,Princess Beauty School,Dearborn Heights,MI,Wayne,United States,42.32604259000004,-83.29311606199997,princessbeautyschool.com
441672,Susquehanna County Career And Technology Center,Springville,PA,Susquehanna,United States,41.738438,-75.956102,scctc-school.org
146506,Lake Land College,Mattoon,IL,Coles,United States,39.41822399000006,-88.38134630199994,lakelandcollege.edu
170055,Grand Rapids Community College,Grand Rapids,MI,Kent,United States,42.96640818800006,-85.66657093699996,grcc.edu
156082,Washburn University,Topeka,KS,Shawnee,United States,39.03497731600004,-95.70232503199998,washburn.edu
208406,Clackamas Community College,Oregon City,OR,Clackamas,United States,45.32318544300006,-122.57427238799994,clackamas.edu
139278,West Georgia Technical College,Waco,GA,Haralson,United States,33.691656711000064,-85.18366560199996,westgatech.edu
384306,Acupuncture And Integrative Medicine College-Berkeley,Berkeley,CA,Alameda,United States,37.86275352200005,-122.26763578099995,aimc.edu
211608,Cheyney University Of Pennsylvania,Cheyney,PA,Delaware,United States,39.932293,-75.529378,cheyney.edu
459745,The Chicago School Of Professional Psychology At Washington Dc,Washington,DC,District Of Columbia,United States,38.90166628400005,-77.0332619,thechicagoschool.edu/washington-dc
184047,Branford Hall Career Institute-Parsippany,Parsippany,NJ,Morris,United States,40.86143298400003,-74.38136691599993,schooliya.com/peg/Parsippany/index.html
224156,Cosmetology Career Center Llc,Carrollton,TX,Dallas,United States,32.97332767800003,-96.84352551599994,paulmitchell.edu/dallas
227182,Lone Star College System,The Woodlands,TX,Montgomery,United States,30.187356,-95.488122,lonestar.edu
407595,Trumbull Career & Technical Center,Warren,OH,Trumbull,United States,41.28064932600006,-80.82480708699995,tctchome.com
230782,Weber State University,Ogden,UT,Weber,United States,41.19258038700008,-111.944839646,weber.edu
364016,Paradise Valley Community College,Phoenix,AZ,Maricopa,United States,33.65213539700005,-112.009865398,paradisevalley.edu
102614,University Of Alaska Fairbanks,Fairbanks,AK,Fairbanks North Star,United States,64.855573,-147.825921,uaf.edu
101505,Jefferson State Community College,Birmingham,AL,Jefferson,United States,33.652534513000035,-86.70723270299999,jeffersonstate.edu
246813,Athens Technical College,Athens,GA,Clarke,United States,33.99018261400005,-83.33959843399998,athenstech.edu
476869,Austin Kade Academy,Idaho Falls,ID,Bonneville,United States,43.48099078600006,-112.00211897699997,austinkade.com
229115,Texas Tech University,Lubbock,TX,Lubbock,United States,33.580451227000026,-101.87712885499997,ttu.edu
233666,Staunton School Of Cosmetology,Staunton,VA,Staunton City,United States,38.14949324400004,-79.07061813999997,hairstylingschool.com
156107,Wichita State University-Campus Of Applied Sciences And Technology,Wichita,KS,Sedgwick,United States,37.757428,-97.224456,wsutech.edu
218070,Furman University,Greenville,SC,Greenville,United States,34.924725729000045,-82.43930293199998,furman.edu
206525,Wittenberg University,Springfield,OH,Clark,United States,39.93479432200007,-83.8139109,wittenberg.edu
216010,Shippensburg University Of Pennsylvania,Shippensburg,PA,Cumberland,United States,40.06191599100004,-77.52198610499994,ship.edu
155308,Kansas Christian College,Overland Park,KS,Johnson,United States,38.99563388300004,-94.66638818099996,kansaschristian.edu
218520,Piedmont Technical College,Greenwood,SC,Greenwood,United States,34.20741508500004,-82.12063453599995,ptc.edu
228787,The University Of Texas At Dallas,Richardson,TX,Dallas,United States,32.989493940000045,-96.74871400299998,utdallas.edu
485014,Empire Beauty School-Buffalo,Cheektowaga,NY,Erie,United States,42.90816575700006,-78.75516230599999,empire.edu
447759,National Polytechnic College,Lakewood,CA,Los Angeles,United States,33.860528,-118.143809,npcollege.edu/index.php
451194,Carlson College Of Massage Therapy,Anamosa,IA,Jones,United States,42.103958,-91.356196,carlsoncollege.com
197142,Villa Maria College,Buffalo,NY,Erie,United States,42.91239047900007,-78.79712535399995,villa.edu
111513,Career Academy Of Beauty,Garden Grove,CA,Orange,United States,33.78101806900003,-118.03169743999996,caofb.com
139311,Clayton State University,Morrow,GA,Clayton,United States,33.59407897600005,-84.32817427099997,clayton.edu
107460,North Arkansas College,Harrison,AR,Boone,United States,36.21991899600005,-93.08844046099996,northark.edu
132842,Albizu University-Miami,Miami,FL,Miami-Dade,United States,25.795161982000025,-80.35500229399997,albizu.edu
143376,Paul Mitchell The School-Bradley,Bourbonnais,IL,Kankakee,United States,41.17361921200006,-87.84730365499996,paulmitchell.edu/bradley
145424,Hair Professionals Career College,Sycamore,IL,Dekalb,United States,41.96222110300005,-88.71814481699994,hairpros.edu
160959,College Of The Atlantic,Bar Harbor,ME,Hancock,United States,44.39524793000004,-68.22151217299995,coa.edu
187897,New Mexico Highlands University,Las Vegas,NM,San Miguel,United States,35.598982,-105.222824,nmhu.edu
190503,Culinary Institute Of America,Hyde Park,NY,Dutchess,United States,41.74580859400004,-73.93322498499998,ciachef.edu
434496,Strand College Of Hair Design,Myrtle Beach,SC,Horry,United States,33.74785045300007,-78.81565239899999,strandcollege.com
218894,Trident Technical College,Charleston,SC,Charleston,United States,32.92549387100007,-80.03050445799994,tridenttech.edu
200484,Trinity Bible College And Graduate School,Ellendale,ND,Dickey,United States,46.00103668000003,-98.51790602399996,trinitybiblecollege.edu
249140,Branford Hall Career Institute-Jersey City,Jersey City,NJ,Hudson,United States,40.73111213000004,-74.06465514199994,schooliya.com/peg/JerseyCity/index.html
406149,Sarasota School Of Massage Therapy,Sarasota,FL,Manatee,United States,27.389726868000025,-82.48666403199996,sarasotaschoolofmassagetherapy.edu
197197,Wagner College,Staten Island,NY,Richmond,United States,40.61449625200004,-74.09086901699999,wagner.edu
431716,Ocean County Vocational-Technical School,Toms River,NJ,Ocean,United States,39.98524459000004,-74.19294621399996,ocvts.org
442967,Pima Medical Institute-Albuquerque West,Albuquerque,NM,Bernalillo,United States,35.18157094900005,-106.68787356599996,pmi.edu
446048,Ave Maria University,Ave Maria,FL,Collier,United States,26.337110275000043,-81.44108210399997,avemaria.edu
155007,Donnelly College,Kansas City,KS,Wyandotte,United States,39.11225641600004,-94.65067366499994,donnelly.edu
175430,Blue Mountain College,Blue Mountain,MS,Tippah,United States,34.67209006600007,-89.02923967799995,bmc.edu
374592,Mcvsd,Freehold,NJ,Monmouth,United States,40.26555386900003,-74.24928124999997,mcvsd.org
190451,Pomeroy College Of Nursing At Crouse Hospital,Syracuse,NY,Onondaga,United States,43.04001827600007,-76.13755835699999,crouse.org/nursing
196264,Suny Empire State College,Saratoga Springs,NY,Saratoga,United States,43.07724510300005,-73.78241340999995,esc.edu
377281,Nuvani Institute,Eagle Pass,TX,Maverick,United States,28.70786363600007,-100.50600909099995,nuvani.edu
455901,The Temple-A Paul Mitchell Partner School,Frederick,MD,Frederick,United States,39.415255,-77.411725,paulmitchell.edu/frederick
175315,Century College,White Bear Lake,MN,Washington,United States,45.04181605400004,-92.98210858999994,century.edu
190682,Cuny School Of Law,Long Island City,NY,Queens,United States,40.747840893000046,-73.94375953599996,law.cuny.edu
468246,Northwest College-Eugene,Springfield,OR,Lane,United States,44.078014,-123.046328,nwcollege.edu
433536,Herzing University-New Orleans,Metairie,LA,Jefferson,United States,30.00160502600005,-90.23952540599998,herzing.edu
136950,Rollins College,Winter Park,FL,Orange,United States,28.593449201000052,-81.34887661399995,rollins.edu
460914,Penrose Academy,Scottsdale,AZ,Maricopa,United States,33.60830910800007,-111.92761690299994,penrose.edu
460932,Skin Institute,Saint Louis,MO,St. Louis,United States,38.52771707000005,-90.36423202199995,skininstitute.edu
155098,Fort Scott Community College,Fort Scott,KS,Bourbon,United States,37.81619207700004,-94.71532370899996,fortscott.edu
232265,Hampton University,Hampton,VA,Hampton City,United States,37.021502,-76.331933,hamptonu.edu
369695,Sebring Career Schools-Houston,Houston,TX,Harris,United States,29.704744,-95.645773,sebringcareerschools.com
400080,Summit College,San Bernardino,CA,San Bernardino,United States,34.05628014300004,-117.30446712699997,summitcollege.edu
105659,Refrigeration School Inc,Phoenix,AZ,Maricopa,United States,33.448691505000056,-111.98935678299996,rsi.edu
372082,Pomona Unified School District Adult And Career Education,Pomona,CA,Los Angeles,United States,34.054886270000054,-117.77254453899997,ace.pusd.org
162335,Delmarva Beauty Academy,Salisbury,MD,Wicomico,United States,38.33869192200007,-75.59993304899996,delmarvabeautyacademy.com
177746,Kansas City Art Institute,Kansas City,MO,Jackson,United States,39.046353217000046,-94.58359352599996,kcai.edu
102049,Samford University,Birmingham,AL,Jefferson,United States,33.46594603700004,-86.79220465299994,samford.edu
147776,Northeastern Illinois University,Chicago,IL,Cook,United States,41.98103122300006,-87.71908350199999,neiu.edu
230676,Uintah Basin Technical College,Roosevelt,UT,Uintah,United States,40.29852073100005,-109.97569069499995,ubtech.edu
234979,Columbia Basin College,Pasco,WA,Franklin,United States,46.25143641200003,-119.118516839,columbiabasin.edu
237215,Bluefield State College,Bluefield,WV,Mercer,United States,37.265731698000025,-81.23903668699995,bluefieldstate.edu
100724,Alabama State University,Montgomery,AL,Montgomery,United States,32.36431681800008,-86.29567689199996,alasu.edu
126049,Thomas Jefferson School Of Law,San Diego,CA,San Diego,United States,32.717955473000075,-117.15829374999998,tjsl.edu
113111,Crafton Hills College,Yucaipa,CA,San Bernardino,United States,34.03874868200006,-117.10039769699996,craftonhills.edu
227289,Oblate School Of Theology,San Antonio,TX,Bexar,United States,29.50548807300004,-98.503347739,ost.edu
419703,Automeca Technical College-Bayamon,Bayamon,PR,Bayamón,United States,18.4064,-66.18,automeca.com
420130,Prism Career Institute-Cherry Hill,Cherry Hill,NJ,Camden,United States,39.93130142900003,-75.05113781099999,prismcareerinstitute.edu
109086,American Conservatory Theater,San Francisco,CA,San Francisco,United States,37.78737167400004,-122.40465541799996,act-sf.org
456588,Salon Success Academy-Fontana,Fontana,CA,San Bernardino,United States,34.09896673700007,-117.43761943799996,gotobeautyschool.com
443137,Irene'S Myomassology Institute,Southfield,MI,Oakland,United States,42.480113,-83.28716906599999,irenes.edu
444316,Bold Beauty Academy,Billings,MT,Yellowstone,United States,45.77674376300007,-108.539809344,boldbeautyacademy.com
449135,Dewey University-Juana Díaz,Juana Diaz,PR,Juana Díaz,United States,18.060017,-66.508864,dewey.edu
454555,Milan Institute Of Cosmetology-Reno,Reno,NV,Washoe,United States,39.485964,-119.788456,milaninstitute.edu
119173,Mount Saint Mary'S University,Los Angeles,CA,Los Angeles,United States,34.085097990000065,-118.48267574399996,msmu.edu
151607,Tricoci University Of Beauty Culture-Lafayette,Lafayette,IN,Tippecanoe,United States,40.41981950200005,-86.88765277699997,tricociuniversity.edu
158325,Baton Rouge General Medical Center School Of Nursing & School Of Radiologic Technology,Baton Rouge,LA,East Baton Rouge,United States,30.449730978000048,-91.15277326299996,brgeneral.org/medical-education/school-of-nursing
167464,Pope St John Xxiii National Seminary,Weston,MA,Middlesex,United States,42.33983753300004,-71.31093940299996,psjs.edu
180692,The University Of Montana-Western,Dillon,MT,Beaverhead,United States,45.208306339000046,-112.63926413699994,w.umwestern.edu
181145,Chi Health School Of Radiologic Technology,Omaha,NE,Douglas,United States,41.322053,-96.020378,chihealth.com/school-of-radiologic-technology
143303,Blessing Hospital School Of Radiologic Technology,Quincy,IL,Adams,United States,39.936502121000046,-91.39890533499994,blessinghealthsystem.org
148511,Rush University,Chicago,IL,Cook,United States,41.87349273300004,-87.66946562899994,rushu.rush.edu
244613,Eti School Of Skilled Trades,Willowbrook,IL,Dupage,United States,41.748334,-87.936249,eticampus.com
193399,College Of Mount Saint Vincent,Bronx,NY,Bronx,United States,40.91281445000004,-73.90634910399996,mountsaintvincent.edu
177968,Lindenwood University,Saint Charles,MO,St. Charles,United States,38.78667934200007,-90.50171756099996,lindenwood.edu
456490,Polytechnic University Of Puerto Rico-Orlando,Orlando,FL,Orange,United States,28.55158,-81.253943,pupr.edu/orlando
490674,Manuel And Theresa'S School Of Hair Design,Brenham,TX,Washington,United States,30.17612555000005,-96.38760424299994,manuelandtheresasschoolofhair.com
490832,Ross College-Canton,Canton,OH,Stark,United States,40.844898,-81.429,rosseducation.edu
490540,Delta Designs Cosmetology School,Wynne,AR,Cross,United States,35.232221,-90.785831,deltadesignscosmetologyschool.com/admissionsfinancial-aid.html
491525,Union Bible College,Westfield,IN,Hamilton,United States,40.03860281000004,-86.12679594599996,ubca.org
492139,Dsdt,Detroit,MI,Wayne,United States,42.325621,-83.081501,dsdt.edu
492360,The Salon Professional Academy-Delray Beach,Delray Beach,FL,Palm Beach,United States,26.46095,-80.119045,tspadelraybeach.com
494588,Pima Medical Institute-San Antonio,San Antonio,TX,Bexar,United States,29.488708,-98.540716,pmi.edu
494834,Educational Technical College,Lares,PR,Lares,United States,18.294782,-66.877248,edutecpr.com
495138,Professional Culinary Academy,Buffalo,NY,Erie,United States,42.92074773900004,-78.87650897399999,professionalculinaryacademy.com
495183,Mariano Moreno Culinary Institute,Miami,FL,Miami-Dade,United States,25.750883345000037,-80.22876541399995,mmci.edu.com
495271,California Indian Nations College,Palm Desert,CA,Riverside,United States,33.77364494300008,-116.35334012599998,cincollege.org
177834,A T Still University Of Health Sciences,Kirksville,MO,Adair,United States,40.1936573,-92.58933532499998,atsu.edu
486619,Academy Of Professional Cosmetology,Rogers,AR,Benton,United States,36.35535431400007,-94.15750292399996,apcschools.com
483595,Universidad Ana G. Mendez-Online Campus,San Juan,PR,San Juan,United States,18.385027,-66.065463,online.uagm.edu
485494,Associated Barber College Of San Diego,San Diego,CA,San Diego,United States,32.719306077000056,-117.16000274799995,sandiegobarbercollege.com
480471,United Education Institute-Uei College Stockton,Stockton,CA,San Joaquin,United States,37.99756,-121.308461,uei.edu
462062,Academy For Salon Professionals,Northridge,CA,Los Angeles,United States,34.23416225400007,-118.558185257,academyla.com
486141,Westchester College Of Nursing & Allied Health,Los Angeles,CA,Los Angeles,United States,33.95487,-118.396511,westchestercollege.edu
167312,North Shore Community College,Danvers,MA,Essex,United States,42.590003910000064,-70.96814225399999,northshore.edu
488299,Mission Beauty Institute,Mission,TX,Hidalgo,United States,26.213777,-98.311992,missionbeautyinstitute.com
488527,Arkansas Colleges Of Health Education,Fort Smith,AR,Sebastian,United States,35.317421,-94.319084,acheedu.org
181312,Mid-Plains Community College,North Platte,NE,Lincoln,United States,41.11042899000006,-100.74841731299996,mpcc.edu
194028,North Country Community College,Saranac Lake,NY,Essex,United States,44.31864483200008,-74.11998091799995,nccc.edu
457794,Edp School,Brooklyn,NY,Kings,United States,40.58596194600005,-73.95295598399997,edpschool.edu
196413,Syracuse University,Syracuse,NY,Onondaga,United States,43.039891,-76.13267,syracuse.edu
225247,Hardin-Simmons University,Abilene,TX,Taylor,United States,32.47678581900004,-99.73381524699994,hsutx.edu
201928,Cincinnati State Technical And Community College,Cincinnati,OH,Hamilton,United States,39.15056931400005,-84.53522865199994,cincinnatistate.edu
231873,Dabney S Lancaster Community College,Clifton Forge,VA,Alleghany,United States,37.812546,-79.85179,dslcc.edu
201034,Apollo Career Center,Lima,OH,Allen,United States,40.69221984300003,-84.14970987999999,apollocareercenter.com/adult-education
224004,Concordia University Texas,Austin,TX,Travis,United States,30.420952467000063,-97.83624749599994,concordia.edu
169798,Eastern Michigan University,Ypsilanti,MI,Washtenaw,United States,42.250277,-83.625156,emich.edu
125310,Waynes College Of Beauty,Salinas,CA,Monterey,United States,36.70063063300006,-121.65266191299996,waynescollegeofbeauty.com
460020,Fortis College-Columbia,Columbia,SC,Richland,United States,34.01506290800006,-81.08190297199997,fortis.edu
214607,Pennsylvania State University-Penn State Great Valley,Malvern,PA,Chester,United States,40.05284453600007,-75.52131066999993,greatvalley.psu.edu
214652,Pennsylvania State University-Penn State Scranton,Dunmore,PA,Lackawanna,United States,41.44025822200007,-75.62058287499997,scranton.psu.edu
460172,Platt College-Stvt-San Antonio,San Antonio,TX,Bexar,United States,29.355999739000023,-98.48914469499994,stvt.edu
460817,Platt College-Miller-Motte-Jacksonville,Jacksonville,NC,Onslow,United States,34.753413368000054,-77.41397898599996,miller-motte.edu
461485,Shepherds Theological Seminary,Cary,NC,Wake,United States,35.74433385000003,-78.74262321299994,shepherds.edu
213552,Levittown Beauty Academy,Levittown,PA,Bucks,United States,40.177232,-74.829013,levittownbeautyacademy.com
418357,Wes Watkins Technology Center,Wetumka,OK,Hughes,United States,35.23330518000006,-96.266261634,wwtech.org
126207,Aims Community College,Greeley,CO,Weld,United States,40.40903694400004,-104.76433489399994,aims.edu
475015,Aveda Institute-Des Moines,West Des Moines,IA,Dallas,United States,41.56267498900007,-93.802585734,avedainstitutedesmoines.com
221388,Tennessee College Of Applied Technology-Ripley,Ripley,TN,Lauderdale,United States,35.779743766000024,-89.51928514699995,tcatripley.edu
210508,Academy Of Vocal Arts,Philadelphia,PA,Philadelphia,United States,39.94786311900003,-75.17368297199994,avaopera.org
219453,Stewart School,Sioux Falls,SD,Minnehaha,United States,43.55541802900007,-96.74609451499998,stewartschool.edu
220631,Lincoln Memorial University,Harrogate,TN,Claiborne,United States,36.58011053200005,-83.65946698199997,lmunet.edu
483337,Paul Mitchell The School-Greenville,Greenville,SC,Greenville,United States,34.824910473000045,-82.28826000199996,paulmitchell.edu/greenville
166823,Massasoit Community College,Brockton,MA,Plymouth,United States,42.07583419600007,-70.98911056199995,massasoit.edu
449074,Pima Medical Institute-Renton,Renton,WA,King,United States,47.46901655900007,-122.21138348999996,pmi.edu
450605,Empire Beauty School-North Hills,Pittsburgh,PA,Allegheny,United States,40.520045,-80.004369,empire.edu
183071,University Of New Hampshire At Manchester,Manchester,NH,Hillsborough,United States,42.98706191500003,-71.46886900199996,manchester.unh.edu
454227,Chamberlain University-Illinois,Addison,IL,Dupage,United States,41.94972680200004,-88.03855790299997,chamberlain.edu
129774,Mitchell College,New London,CT,New London,United States,41.32820574100003,-72.09888233399994,mitchell.edu
221616,Tennessee College Of Applied Technology-Jackson,Jackson,TN,Madison,United States,35.60682676500005,-88.91974686599997,tcatjackson.edu
193609,Neighborhood Playhouse School Of The Theater,New York City,NY,New York,United States,40.75661340500005,-73.96533188599994,neighborhoodplayhouse.org
455628,Fortis Institute-Birmingham,Birmingham,AL,Jefferson,United States,33.44292074900005,-86.86265880399998,fortis.edu
455992,Vermont College Of Fine Arts,Montpelier,VT,Washington,United States,44.25520970400004,-72.56761643899995,vcfa.edu
157030,Kentucky Mountain Bible College,Jackson,KY,Breathitt,United States,37.604308,-83.43771,kmbc.edu
437097,University Of Management And Technology,Arlington,VA,Arlington,United States,38.89746019100005,-77.07209786899995,umtweb.edu
135522,Traviss Technical College,Lakeland,FL,Polk,United States,27.99578975000003,-81.89350308999997,traviss.edu
137120,Suncoast Technical College,Sarasota,FL,Sarasota,United States,27.28548583600008,-82.50082671699994,suncoast.edu
148885,University Of Saint Mary Of The Lake,Mundelein,IL,Lake,United States,42.28116629700003,-88.00073231299996,usml.edu
188030,New Mexico State University-Main Campus,Las Cruces,NM,Doña Ana,United States,32.282875,-106.747841,nmsu.edu
196583,Torah Temimah Talmudical Seminary,Staten Island,NY,Richmond,United States,40.63550871100006,-73.97197336199997,torahtemimahtalmudicalseminary.com
430245,Southern Careers Institute-San Antonio,San Antonio,TX,Bexar,United States,29.355779208000055,-98.494245418,scitexas.edu
382267,Royale College Of Beauty And Barbering,Temecula,CA,Riverside,United States,33.515476,-117.16454101299996,NOT AVAILABLE
444486,Paul Mitchell The School-Gastonia,Gastonia,NC,Gaston,United States,35.25422500900004,-81.17910764999993,paulmitchell.edu/gastonia
454944,Paul Mitchell The School-Rexburg,Rexburg,ID,Madison,United States,43.814345,-111.803611,paulmitchell.edu/rexburg
457031,Capri Beauty College,New Lenox,IL,Will,United States,41.50995832600006,-87.92781629099994,capri.edu
481331,Sharp Edgez Barber Institute,Rochester,NY,Monroe,United States,43.14027640200004,-77.60473874099995,sharpedgez.com
182829,University Of New Hampshire-Franklin Pierce School Of Law,Concord,NH,Merrimack,United States,43.20737082000005,-71.54515206599996,law.unh.edu
197230,Wells College,Aurora,NY,Cayuga,United States,42.74431432100005,-76.69651201299996,wells.edu
482608,Devry University-Pennsylvania,Ft. Washington,PA,Montgomery,United States,40.13897848800008,-75.17917592399994,devry.edu
439774,New Concept Massage And Beauty School,Miami,FL,Miami-Dade,United States,25.771280372000035,-80.22854733899999,massagebeautyschool.com
447023,Delta Technical College,Horn Lake,MS,Desoto,United States,34.956252,-89.999647,deltatechnicalcollege.com
145691,Illinois College,Jacksonville,IL,Morgan,United States,39.73078276100006,-90.24659094299994,ic.edu
186186,Rabbinical College Of America,Morristown,NJ,Morris,United States,40.80588836300007,-74.49925275299995,rca.edu
196194,Suny College At Oswego,Oswego,NY,Oswego,United States,43.453770442000064,-76.54388452099994,oswego.edu
449719,Northcoast Medical Training Academy,Kent,OH,Portage,United States,41.15413942000004,-81.32622610599998,northcoastmedicalacademy.com
189705,Canisius College,Buffalo,NY,Erie,United States,42.92491902300003,-78.85088028699994,canisius.edu
136109,Paul Mitchell The School-Jacksonville,Jacksonville,FL,Duval,United States,30.259433,-81.527515,paulmitchell.edu/jacksonville
442569,Grantham University,Lenexa,KS,Johnson,United States,38.922524,-94.771609,grantham.edu
448840,University Of South Florida-St Petersburg,St. Petersburg,FL,Pinellas,United States,27.76271270700005,-82.63655499899994,usfsp.edu
456126,Empire Beauty School-Lauderhill,Lauderhill,FL,Broward,United States,26.184743,-80.251108,empire.edu
233903,Virginia Highlands Community College,Abingdon,VA,Washington,United States,36.699275,-82.001304,vhcc.edu
374316,Academy Of Hair Design-Jackson,Jackson,MS,Hinds,United States,32.282646397000065,-90.21051678899994,academyofhair.com
100733,University Of Alabama System Office,Tuscaloosa,AL,Tuscaloosa,United States,33.206967,-87.529571,uasystem.edu
100812,Athens State University,Athens,AL,Limestone,United States,34.80562505000006,-86.96514045099997,athens.edu
153384,Grinnell College,Grinnell,IA,Poweshiek,United States,41.74636255100006,-92.721431748,grinnell.edu
183789,Berkeley College-Woodland Park,Woodland Park,NJ,Passaic,United States,40.89858713800004,-74.18948273299998,berkeleycollege.edu
165820,Fitchburg State University,Fitchburg,MA,Worcester,United States,42.589345139000045,-71.7893535,fitchburgstate.edu
458849,Empire Beauty School-Paramus,Paramus,NJ,Bergen,United States,40.91264038600008,-74.04370248899994,empire.edu
460987,The Salon Professional Academy-North Little Rock,Sherwood,AR,Pulaski,United States,34.79744766500005,-92.25687296799998,littlerockbeautyschool.com
461537,Evolve Beauty Academy,Washing,MO,Franklin,United States,38.34411954600006,-90.98160243299998,evolvebeautyacademy.edu
228732,Texas A & M University-System Office,College Station,TX,Brazos,United States,30.636846,-96.327705,tamus.edu
237172,Ben Franklin Career Center,Dunbar,WV,Kanawha,United States,38.36723350800003,-81.75353048299996,benfranklinctc.weebly.com
181303,Metropolitan Community College Area,Omaha,NE,Douglas,United States,41.30588325200006,-95.95785181899998,mccneb.edu
101189,Faulkner University,Montgomery,AL,Montgomery,United States,32.38418093200005,-86.21641026099996,faulkner.edu
236656,South Puget Sound Community College,Olympia,WA,Thurston,United States,47.02453715000007,-122.92986432299996,spscc.edu
139764,Georgia Southwestern State University,Americus,GA,Sumter,United States,32.058198,-84.217755,gsw.edu
364636,Portage Lakes Career Center,Uniontown,OH,Summit,United States,40.943122,-81.472008,plcc.edu
100690,Amridge University,Montgomery,AL,Montgomery,United States,32.362609150000026,-86.17401005399995,amridgeuniversity.edu
123448,Trinity Law School,Santa Ana,CA,Orange,United States,33.76607060600003,-117.85205936999996,tls.edu
114840,Fuller Theological Seminary,Pasadena,CA,Los Angeles,United States,34.14778043300004,-118.14026139699996,fuller.edu
114947,Gemological Institute Of America-Carlsbad,Carlsbad,CA,San Diego,United States,33.131313299000055,-117.31876489399995,gia.edu/gem-education
152309,Rogers Academy Of Hair Design,Evansville,IN,Vanderburgh,United States,37.98371085100007,-87.60975233499994,rogershair.com
154165,Iowa School Of Beauty-Ottumwa,Ottumwa,IA,Wapello,United States,41.02333969700004,-92.41794773899994,iowaschoolofbeauty.com
212674,Gettysburg College,Gettysburg,PA,Adams,United States,39.83584149300003,-77.23453326699996,gettysburg.edu
115126,Golden West College,Huntington Beach,CA,Orange,United States,33.733774545000074,-118.0030355,goldenwestcollege.edu
140696,Oglethorpe University,Atlanta,GA,Dekalb,United States,33.875939447000064,-84.33475635399998,oglethorpe.edu
418065,Eastern Suffolk Boces,Brentwood,NY,Suffolk,United States,40.77179995500006,-73.23928026599998,esboces.org
191126,Fashion Institute Of Technology,New York,NY,New York,United States,40.74730955700005,-73.99478069799994,fitnyc.edu
456597,Salon Success Academy-Redlands,Redlands,CA,San Bernardino,United States,34.06234206800008,-117.21893269499998,gotobeautyschool.com
156222,Asbury Theological Seminary,Wilmore,KY,Jessamine,United States,37.86222951700006,-84.65991556099993,asburyseminary.edu
158477,Centenary College Of Louisiana,Shreveport,LA,Caddo,United States,32.483334685000045,-93.73083375,centenary.edu
159717,Mcneese State University,Lake Charles,LA,Calcasieu,United States,30.180761940000025,-93.21564799499998,mcneese.edu
175980,Millsaps College,Jackson,MS,Hinds,United States,32.32309958700006,-90.17808389299996,millsaps.edu
216418,Fortis Institute-Erie,Erie,PA,Erie,United States,42.06040009800006,-80.20432804799998,fortis.edu
230816,Bennington College,Bennington,VT,Bennington,United States,42.919988027000045,-73.23903137799994,bennington.edu
238078,Wheeling University,Wheeling,WV,Ohio,United States,40.07164648400004,-80.69014062299993,wju.edu
455479,Fortis Institute-Pensacola,Pensacola,FL,Escambia,United States,30.51041456400003,-87.18311221199997,fortis.edu
490045,Presbyterian Theological Seminary In America,Santa Fe Springs,CA,Los Angeles,United States,33.88847657200006,-118.047,ptsa.edu
490285,California Institute Of Arts & Technology,San Diego,CA,San Diego,United States,32.77080488400003,-117.13413325,ciat.edu
492306,Escondido Adult School,Escondido,CA,San Diego,United States,33.131225,-117.088454,escondidoadultschool.org
400558,Los Angeles Pacific College,Los Angeles,CA,Los Angeles,United States,34.062282,-118.295037,lapacific.edu
493576,Pmca Pittsburgh Multicultural Cosmetology Academy,Pittsburgh,PA,Allegheny,United States,40.439395,-79.99942,pmcapgh.com
494904,Access Careers-Islandia,Islandia,NY,Suffolk,United States,40.800874,-73.175617,accesscareers.net
495484,Jersey College,Jacksonville,FL,Duval,United States,30.22237,-81.565743,NOT AVAILABLE
495864,Liberty Junior College - Dba Liberty Technical Institute,Orlando,FL,Orange,United States,28.52840608100007,-81.31175188699996,NOT AVAILABLE
493691,Premier Academy Of Cosmetology,Mcalester,OK,Pittsburg,United States,34.94153294100005,-95.766505264,premiercosmo.com
493716,Yeshiva Gedola Tiferes Yaakov Yitzchok,Lakewood,NJ,Ocean,United States,40.05665213700007,-74.22301761199998,yeshivatyy.com
493910,Tuana European Beauty Academy,Fort Collins,CO,Larimer,United States,40.57605331900004,-105.07684956599996,tuanaacademy.com
494171,Arizona College-Tempe,Tempe,AZ,Maricopa,United States,33.40324774700008,-111.96590163999996,arizonacollege.edu
487320,Texas State Technical College,Waco,TX,Mclennan,United States,31.637322797000024,-97.08369228599996,tstc.edu
447607,United Education Institute-Chula Vista,Chula Vista,CA,San Diego,United States,32.60861956800005,-117.06537941499994,uei.edu
483920,Labarberia Institute Of Hair,Mayfield Hts,OH,Cuyahoga,United States,41.51604389800008,-81.45062126199997,labarberiainstitute.com
486433,Presidio Graduate School,San Francisco,CA,San Francisco,United States,37.80026,-122.475261,presidio.edu
486105,Professional Academy Of Cosmetology,Norristown,PA,Montgomery,United States,40.11414572300004,-75.33299443799996,penncosmetology.com
171225,Monroe County Community College,Monroe,MI,Monroe,United States,41.91616971600007,-83.4702737,monroeccc.edu
488925,International Diving Institute,North Charleston,SC,Charleston,United States,32.866299,-79.974545,idicharleston.edu
489371,Spartan College Of Aeronautics And Technology,Riverside,CA,Riverside,United States,33.990743,-117.410317,spartan.edu
457873,Four County Career Center,Archbold,OH,Henry,United States,41.45280837500008,-84.30311469499998,fourcounty.net/adulteducation_home.aspx
206181,Tri-Rivers Career Center,Marion,OH,Marion,United States,40.583077409000055,-83.06982431299997,tririvers.com
163851,Salisbury University,Salisbury,MD,Wicomico,United States,38.34544685700007,-75.60570469799995,salisbury.edu
214731,Pennsylvania State University-Penn State Brandywine,Media,PA,Delaware,United States,39.92835520500006,-75.44782499799999,brandywine.psu.edu
461139,Jung Tao School Of Classical Chinese Medicine,Sugar Grove,NC,Watauga,United States,36.26323308500002,-81.78530256299996,jungtao.edu
218663,University Of South Carolina-Columbia,Columbia,SC,Richland,United States,33.996677,-81.026916,sc.edu
407568,Raphael'S School Of Beauty Culture Inc-Boardman,Boardman,OH,Mahoning,United States,41.02365703600003,-80.68002469599998,raphaelsbeautyschool.edu
119216,Mt San Jacinto Community College District,San Jacinto,CA,Riverside,United States,33.807364104000044,-116.970062639,msjc.edu
149781,Wheaton College,Wheaton,IL,Dupage,United States,41.87094274300006,-88.09681024199995,wheaton.edu
226204,Lee College,Baytown,TX,Harris,United States,29.731654331000072,-94.97672393399996,lee.edu
233426,Roanoke College,Salem,VA,Salem City,United States,37.29685967200004,-80.05643306499996,roanoke.edu
479983,Elevate Salon Institute-Westminster,Westminster,CO,Jefferson,United States,40.15344544800007,-105.10434857999996,esiwestminster.com
481049,Carthage R9 School District-Carthage Technical Center,Carthage,MO,Jasper,United States,37.17392697300005,-94.30087048699994,ctc.carthagetigers.org
481526,The Chrysm Institute Of Esthetics,Virginia Beach,VA,Virginia Beach City,United States,36.84521,-76.13731656099998,chrysm.org
481906,Ross Medical Education Center-Charleston,Charleston,WV,Kanawha,United States,38.31083415000006,-81.56923453699994,rosseducation.edu
181817,Western Nebraska Community College,Scottsbluff,NE,Scotts Bluff,United States,41.87570530500005,-103.64249021299996,wncc.edu
205443,Shawnee State University,Portsmouth,OH,Scioto,United States,38.73090906800008,-82.99535656299997,shawnee.edu
482194,Arrojo Cosmetology School,New York,NY,New York,United States,40.7275649000001,-74.00516240799993,arrojocosmetology.com
483276,Jb'S Hair Design And Barber College,Oklahoma City,OK,Oklahoma,United States,35.40451830800004,-97.52832574999996,jbsbarbercollege.org
221333,Tennessee College Of Applied Technology-Pulaski,Pulaski,TN,Giles,United States,35.19100769200003,-87.00792267399999,tcatpulaski.edu
229355,Tyler Junior College,Tyler,TX,Smith,United States,32.336015350000025,-95.28412914899997,tjc.edu
484172,Lee Professional Institute,Fort Myers,FL,Lee,United States,26.604019341000026,-81.85131960899997,leeproinstitute.edu
484330,Ross Medical Education Center-Owensboro,Owensboro,KY,Daviess,United States,37.72067334300005,-87.11881400099998,rosseducation.edu
484899,Aveda Institute-Phoenix,Tempe,AZ,Maricopa,United States,33.33889215700003,-111.96883374099995,avedainspiregreatness.com/phoenix-campus
157483,West Kentucky Community And Technical College,Paducah,KY,Mccracken,United States,37.05408105200007,-88.65876223299995,westkentucky.kctcs.edu
170790,Macomb Community College,Warren,MI,Macomb,United States,42.505281,-82.972144,macomb.edu
103963,Platt College-Arizona Automotive Institute Arizona,Glendale,AZ,Maricopa,United States,33.537248841000064,-112.15734391099994,aai.edu
107318,Arkansas State University Mid-South,West Memphis,AR,Crittenden,United States,35.145735614000046,-90.22284972799996,asumidsouth.edu
107585,University Of Arkansas Community College-Morrilton,Morrilton,AR,Conway,United States,35.17213649400003,-92.72850741599996,uaccm.edu
142887,American Academy Of Art,Chicago,IL,Cook,United States,41.87711611900005,-87.62480480899995,aaart.edu
418038,Albany Boces-Adult Practical Nursing Program,Albany,NY,Albany,United States,42.73719466000006,-73.82333051899997,capitalregionboces.org/adult-education/classes-programs
152044,West Michigan College Of Barbering And Beauty,Kalamazoo,MI,Kalamazoo,United States,42.25927644200004,-85.59023792599999,westmichigancollegeofbarberingandbeauty.com
102429,Bevill State Community College,Jasper,AL,Walker,United States,33.83722995000005,-87.26575130799995,bscc.edu
200156,University Of Jamestown,Jamestown,ND,Stutsman,United States,46.915402,-98.697209,uj.edu
132976,Charlotte Technical College,Port Charlotte,FL,Charlotte,United States,27.005558172000065,-82.14723765799994,charlottetechcollege.net
157331,Maysville Community And Technical College,Maysville,KY,Mason,United States,38.627026,-83.805641,maysville.kctcs.edu
231411,Advanced Technology Institute,Virginia Beach,VA,Virginia Beach City,United States,36.84136429300003,-76.18225107099994,auto.edu
171997,Ross Medical Education Center-Madison Heights,Madison Heights,MI,Oakland,United States,42.50818923700007,-83.10769159399996,rosseducation.edu
180160,Chief Dull Knife College,Lame Deer,MT,Rosebud,United States,45.625559,-106.66459,cdkc.edu
199494,Rowan-Cabarrus Community College,Salisbury,NC,Rowan,United States,35.639388,-80.48181,rccc.edu
428019,Green Country Technology Center,Okmulgee,OK,Okmulgee,United States,35.632969,-95.936416,gctcok.edu
439899,Rosedale Bible College,Irwin,OH,Madison,United States,40.07778509600007,-83.45551512099996,rosedale.edu
446224,Eastern School Of Acupuncture And Traditional Medicine,Bloomfield,NJ,Essex,United States,40.793604,-74.197285,esatm.edu
233684,Strayer University-Virginia,Arlington,VA,Arlington,United States,38.890990517000034,-77.08528764899995,strayer.edu/campus-locations/virginia/arlington
420705,Bakke Graduate University,Dallas,TX,Dallas,United States,32.89453405100005,-96.75398269299995,bgu.edu
475486,Paul Mitchell The School-Arlington,Arlington,TX,Tarrant,United States,32.68074504700007,-97.107188932,paulmitchell.edu/arlington
366340,Stone Child College,Box Elder,MT,Chouteau,United States,48.289861,-109.870216,stonechild.edu
366553,Southern Technical College,Fort Myers,FL,Lee,United States,26.59609719200006,-81.87764416499994,southerntech.edu
418764,Quality Technical And Beauty College,Bayamon,PR,Bayamón,United States,18.399412,-66.158292,qualitytechbeautycollege.com
433174,Carolinas College Of Health Sciences,Charlotte,NC,Mecklenburg,United States,35.20029547400003,-80.83853538999995,carolinascollege.edu
441362,Harris School Of Business-Wilmington Campus,Wilmington,DE,New Castle,United States,39.80089168600006,-75.52391669399998,harrisschool.edu
442611,Nascar Technical Institute,Mooresville,NC,Iredell,United States,35.60530526600007,-80.85512828999998,uti.edu
449524,Taylor College,Belleview,FL,Marion,United States,29.040113305000038,-82.06238369499994,taylorcollege.edu
175014,Rasmussen University-Minnesota,St. Cloud,MN,Stearns,United States,45.54754076400008,-94.20631615899998,rasmussen.edu
195173,St Francis College,Brooklyn Heights,NY,Kings,United States,40.69322753200004,-73.99216428499994,sfc.edu
367334,National Tractor Trailer School Inc-Liverpool,Liverpool,NY,Onondaga,United States,43.14065232300004,-76.19334127099995,ntts.edu
418083,Rockland County Boces-Practical Nursing Program,West Nyack,NY,Rockland,United States,41.12000386700004,-73.98036602999997,rocklandboces.org/adult-education-business-services/practical-nursing
369419,Erwin Technical College,Tampa,FL,Hillsborough,United States,27.997242131000064,-82.43593314799995,erwin.edu
155618,Northwest Kansas Technical College,Goodland,KS,Sherman,United States,39.346423567000045,-101.70022043899996,nwktc.edu
164845,Empire Beauty School-Boston,Boston,MA,Suffolk,United States,42.354744,-71.062529,empire.edu
173920,Minnesota State University-Mankato,Mankato,MN,Blue Earth,United States,44.147253,-93.998494,mankato.mnsu.edu
187985,University Of New Mexico-Main Campus,Albuquerque,NM,Bernalillo,United States,35.083868,-106.620155,unm.edu
195322,Schenectady County Community College,Schenectady,NY,Schenectady,United States,42.81441243000006,-73.95000839199997,sunysccc.edu
196440,Talmudical Institute Of Upstate New York,Rochester,NY,Monroe,United States,43.147062066000046,-77.57494269799997,tiuny.org
197744,Yeshivath Zichron Moshe,South Fallsburg,NY,Sullivan,United States,41.730433,-74.621917,yeshivathzichronmoshe.com
238616,Concordia University-Wisconsin,Mequon,WI,Ozaukee,United States,43.25421651400006,-87.91662827499994,cuw.edu
107877,Williams Baptist University,Walnut Ridge,AR,Lawrence,United States,36.12561769200005,-90.94026246,williamsbaptistuniversity.com
232618,Centra College,Lynchburg,VA,Lynchburg City,United States,37.41694525100007,-79.17141781499998,centrahealth.com/CCON
147369,Moody Bible Institute,Chicago,IL,Cook,United States,41.89782184300003,-87.63345922999997,moody.edu
460996,The Salon Professional Academy-St Charles,St. Charles,MO,St. Charles,United States,38.78889129800007,-90.538719368,tspastlouis.com
461759,Simmons College Of Kentucky,Louisville,KY,Jefferson,United States,38.23951947400008,-85.76481072299998,simmonscollegeky.edu
231624,William & Mary,Williamsburg,VA,Williamsburg City,United States,37.273294,-76.719631,wm.edu
441645,Brown Aveda Institute-Mentor,Mentor,OH,Lake,United States,41.67200155500007,-81.32431793999996,brownaveda.com
442888,Intercoast Colleges-Riverside,Riverside,CA,Riverside,United States,33.993598356000064,-117.34475248499996,intercoast.edu
152336,University Of Saint Francis-Fort Wayne,Fort Wayne,IN,Allen,United States,41.08777236700007,-85.17369446599997,sf.edu
204857,Ohio University-Main Campus,Athens,OH,Athens,United States,39.323839,-82.103503,ohio.edu
212984,Holy Family University,Philadelphia,PA,Philadelphia,United States,40.06058056200004,-74.98645078699997,holyfamily.edu
377564,University Of Washington-Tacoma Campus,Tacoma,WA,Pierce,United States,47.24458628600007,-122.43803199899996,tacoma.uw.edu
390905,Polaris Career Center,Middleburg Heights,OH,Cuyahoga,United States,41.364400243000034,-81.83247368699995,polaris.edu
112127,Church Divinity School Of The Pacific,Berkeley,CA,Alameda,United States,37.876184040000055,-122.26112151299998,cdsp.edu
112826,Contra Costa College,San Pablo,CA,Contra Costa,United States,37.97100246100007,-122.33899526799996,contracosta.edu
124681,United Education Institute-Huntington Park Campus,Huntington Park,CA,Los Angeles,United States,33.98605745800006,-118.22620586399997,uei.edu
142328,Lewis-Clark State College,Lewiston,ID,Nez Perce,United States,46.41068642900007,-117.02690403499996,lcsc.edu
123651,Vanguard University Of Southern California,Costa Mesa,CA,Orange,United States,33.662686456000074,-117.90091076699996,vanguard.edu
101301,George C Wallace State Community College-Selma,Selma,AL,Dallas,United States,32.44574401700004,-87.01320340299998,wccs.edu
127884,Pueblo Community College,Pueblo,CO,Pueblo,United States,38.26331962700005,-104.63631466399994,pueblocc.edu
261773,Pike-Lincoln Technical Center,Eolia,MO,Pike,United States,39.24606943500004,-91.02034686899998,pltc.edu
447014,Daytona College,Ormond Beach,FL,Volusia,United States,29.270087975000024,-81.08015500699997,daytonacollege.edu
447908,Florida Academy Of Health & Beauty,Oakland Park,FL,Broward,United States,26.166257,-80.182731,flacademyofbeauty.edu
191597,Helene Fuld College Of Nursing,New York,NY,New York,United States,40.80247643600006,-73.94332473899993,helenefuld.edu
192712,Manhattan School Of Music,New York,NY,New York,United States,40.81234112100003,-73.96169082999995,msmnyc.edu
449889,American College Of Education,Indianapolis,IN,Marion,United States,39.76982362900003,-86.16004661199997,ace.edu
456065,Paul Mitchell The School-Cleveland,Twinsburg,OH,Summit,United States,41.331292090000034,-81.46368975399997,paulmitchell.edu/cleveland
371690,Downey Adult School,Downey,CA,Los Angeles,United States,33.91965460900008,-118.11572497599995,das.edu
449083,College Of Business And Technology-Main Campus,Miami,FL,Miami-Dade,United States,25.769052272000067,-80.3291611,cbt.edu
262369,Adrian'S College Of Beauty Turlock,Turlock,CA,Stanislaus,United States,37.49144762700007,-120.86378360599996,adrians.edu
130934,Delaware State University,Dover,DE,Kent,United States,39.18717333700005,-75.54052998599997,desu.edu
130882,Delaware Technical Community College-Central Office,Dover,DE,Kent,United States,39.19814445200007,-75.56287279199995,dtcc.edu
134510,Hobe Sound Bible College,Hobe Sound,FL,Martin,United States,27.06630428700004,-80.13183978099994,hsbc.edu
150288,Concordia Theological Seminary,Fort Wayne,IN,Allen,United States,41.13932080700005,-85.10993971799996,ctsfw.edu
172440,Finlandia University,Hancock,MI,Houghton,United States,47.12680816000005,-88.58911344699999,finlandia.edu
171492,Northwood University,Midland,MI,Midland,United States,43.62899564400004,-84.27627593099999,northwood.edu
169503,David Pressley School Of Cosmetology,Royal Oak,MI,Oakland,United States,42.47972903500005,-83.14600759799998,davidpressleyschool.com
174783,Saint Cloud State University,Saint Cloud,MN,Stearns,United States,45.55322719900005,-94.15265735799994,stcloudstate.edu
176035,Mississippi University For Women,Columbus,MS,Lowndes,United States,33.49449062300005,-88.41981107599997,muw.edu
197966,Beaufort County Community College,Washington,NC,Beaufort,United States,35.533567480000045,-76.96541817199994,beaufortccc.edu
378956,National Aviation Academy Of Tampa Bay,Clearwater,FL,Pinellas,United States,27.894840461000054,-82.72137206299999,naa.edu
153746,La James International College-Cedar Falls,Cedar Falls,IA,Black Hawk,United States,42.51504060100007,-92.43447827699998,ljic.edu
211130,Missio Theological Seminary,Philadelphia,PA,Philadelphia,United States,40.28141446500007,-75.30389668699996,missio.edu
490151,Allied Health Careers Institute,Murfreesboro,TN,Rutherford,United States,35.827830379000034,-86.39151515299994,ahci.edu
490878,Platt College-Anaheim,Anaheim,CA,Orange,United States,33.809358,-117.878,plattcollege.edu
491853,Princess Institute Of Beauty,Reedley,CA,Fresno,United States,36.60363279000006,-119.43170454899996,piofb.com
101693,University Of Mobile,Mobile,AL,Mobile,United States,30.793247,-88.128934,umobile.edu
216852,Widener University,Chester,PA,Delaware,United States,39.86171640900005,-75.35521616899996,widener.edu
162609,Garrett College,Mchenry,MD,Garrett,United States,39.56065771600004,-79.34326742599995,garrettcollege.edu/index.php
476568,Tomorrow'S Image Barber And Beauty Academy Of Virginia,Newport News,VA,Newport News City,United States,37.11867062100004,-76.52519305099997,tomorrowsimage.com
486886,Eastern Suffolk Boces,Oakdale,NY,Suffolk,United States,40.74490756700004,-73.11083404899995,esboces.org
488031,Abraham Lincoln University,Glendale,CA,Los Angeles,United States,34.146374,-118.256461,alu.edu
488907,Wongu University Of Oriental Medicine,Las Vegas,NV,Clark,United States,36.03274,-115.117581,wongu.edu
179557,Southeast Missouri State University,Cape Girardeau,MO,Cape Girardeau,United States,37.31575039500007,-89.52911877899999,semo.edu
457943,Somerset County Technology Center,Somerset,PA,Somerset,United States,40.00468987100004,-79.02966613399997,sctc.net/dnn
198561,Gardner-Webb University,Boiling Springs,NC,Cleveland,United States,35.24732,-81.668141,gardner-webb.edu
201885,University Of Cincinnati-Main Campus,Cincinnati,OH,Hamilton,United States,39.13115854200004,-84.51428019599996,uc.edu
197708,Yeshiva University,New York,NY,New York,United States,40.85079951600005,-73.92854102799998,yu.edu
459532,Salon & Spa Institute,Brownsville,TX,Cameron,United States,25.93889634800007,-97.50858030799998,ssi.edu
209807,Portland State University,Portland,OR,Multnomah,United States,45.51169772400005,-122.68419723399995,pdx.edu
459985,Southern Careers Institute-Harlingen,Harlingen,TX,Cameron,United States,26.20385,-97.675281,scitexas.edu
136330,Palm Beach Atlantic University,West Palm Beach,FL,Palm Beach,United States,26.70475689600005,-80.05037963399997,pba.edu
166452,Lesley University,Cambridge,MA,Middlesex,United States,42.38046356700005,-71.11675468799996,lesley.edu
228778,The University Of Texas At Austin,Austin,TX,Travis,United States,30.283809,-97.736463,utexas.edu
407489,Mahoning County Career And Technical Center,Canfield,OH,Mahoning,United States,41.03269620500004,-80.78766794099994,mahoningctc.com/mcctc-adult-career-center
452540,Community Technology Learning Center Of Portage,Ravenna,OH,Portage,United States,41.15606258500003,-81.24110564199998,cacportage.net
101143,Enterprise State Community College,Enterprise,AL,Coffee,United States,31.297495533000077,-85.83695594699998,escc.edu
106467,Arkansas Tech University,Russellville,AR,Pope,United States,35.295227,-93.13233,atu.edu
203678,James A Rhodes State College,Lima,OH,Allen,United States,40.73834728300005,-84.02631883099997,rhodesstate.edu
476498,Futura Career Institute,Hialeah,FL,Miami-Dade,United States,25.863099271000067,-80.30723082399999,futuracareerinstitute.net
476939,Florida Vocational Institute,Miami,FL,Miami-Dade,United States,25.77345216200007,-80.32171533499996,fvi.edu
228802,The University Of Texas At Tyler,Tyler,TX,Smith,United States,32.31485756200004,-95.24924057599998,uttyler.edu
165033,Bristol Community College,Fall River,MA,Bristol,United States,41.72198948500005,-71.11912944999995,bristolcc.edu
161545,Southern Maine Community College,South Portland,ME,Cumberland,United States,43.648991290000026,-70.22692746799999,smccme.edu
216931,Wilkes University,Wilkes-Barre,PA,Luzerne,United States,41.24495784800007,-75.88849460699998,wilkes.edu
212054,Drexel University,Philadelphia,PA,Philadelphia,United States,39.95485500900003,-75.18874473699998,drexel.edu
481182,Ukiah Adult School,Ukiah,CA,Mendocino,United States,39.16094387500005,-123.21517896399996,adultschool.uusd.net
206507,Wilmington College,Wilmington,OH,Clinton,United States,39.44109677900008,-83.81727086899997,wilmington.edu
205966,Southern State Community College,Hillsboro,OH,Highland,United States,39.23692386500005,-83.61408510699994,sscc.edu
217776,Southern Wesleyan University,Central,SC,Pickens,United States,34.72806801200005,-82.76158644499998,swu.edu
483735,Total Transformation Institute Of Cosmetology,San Marcos,TX,Hays,United States,29.88227921600003,-97.919998476,ttioc.com
483744,Vibe Barber College,Memphis,TN,Shelby,United States,35.163418954000065,-90.03707386999997,vibebarbercollege.edu
483939,Setting The Standard Barbering And Natural Hair Academy,Shreveport,LA,Caddo,United States,32.48423483800008,-93.79755347599996,sts-academy.com
230852,Champlain College,Burlington,VT,Chittenden,United States,44.47300918000008,-73.20391335399995,champlain.edu
182564,Western Nevada College,Carson City,NV,Carson City,United States,39.18615812500008,-119.79036003899996,wnc.edu
169363,Concordia University-Ann Arbor,Ann Arbor,MI,Washtenaw,United States,42.27416022700004,-83.68244782699998,cuaa.edu
451750,Bryant & Stratton College-Wauwatosa,Wauwatosa,WI,Milwaukee,United States,43.04321477900004,-88.05098251599998,bryantstratton.edu
454546,Milan Institute Of Cosmetology-Fairfield,Fairfield,CA,Solano,United States,38.24844767200005,-122.045499845,milaninstitute.edu
111744,Cet-Colton,Colton,CA,San Bernardino,United States,34.077377,-117.353582,cetweb.edu
123457,Simpson University,Redding,CA,Shasta,United States,40.61330972700006,-122.33304826499996,simpsonu.edu
235103,Edmonds College,Lynnwood,WA,Snohomish,United States,47.81637571400006,-122.32759802399994,edcc.edu
436827,University Of Connecticut-Avery Point,Groton,CT,New London,United States,41.31723109500007,-72.06393526899996,averypoint.uconn.edu
172927,American Indian Oic Inc,Minneapolis,MN,Hennepin,United States,44.96199279000007,-93.246166148,aioic.org
107071,Henderson State University,Arkadelphia,AR,Clark,United States,34.12779225700007,-93.06031319,hsu.edu
455327,Hands On Therapy,Mesquite,TX,Dallas,United States,32.787687,-96.606243,handsontherapyschools.com
161244,University Of Maine At Machias,Machias,ME,Washington,United States,44.70989486500008,-67.45653406399998,machias.edu
204176,Mount Carmel College Of Nursing,Columbus,OH,Franklin,United States,39.95724195100007,-83.02018408599997,mccn.edu
245883,Antioch University-Seattle,Seattle,WA,King,United States,47.61719071100004,-122.34251152299998,antiochseattle.edu
122296,Samuel Merritt University,Oakland,CA,Alameda,United States,37.821326535000026,-122.26443860199998,samuelmerritt.edu
440004,Upper Valley Educators Institute,Lebanon,NH,Grafton,United States,43.63759456300005,-72.23082194799997,uvei.edu
439020,Midwest College Of Oriental Medicine-Evanston,Evanston,IL,Cook,United States,42.047347107000064,-87.68171151399997,acupuncture.edu
439871,Pci College,Cerritos,CA,Los Angeles,United States,33.87475043000006,-118.10016887199998,pci-ed.com
215415,Pittsburgh Technical College,Oakdale,PA,Allegheny,United States,40.42467903100004,-80.18940387399994,ptcollege.edu
217606,Northpoint Bible College,Haverhill,MA,Essex,United States,42.76536553100004,-71.07933602999998,northpoint.edu
221731,Tennessee Wesleyan University,Athens,TN,Mcminn,United States,35.44526720400006,-84.59258639199999,tnwesleyan.edu
419217,Mercy Hospital School Of Practical Nursing-Plantation General Hospital,Miami,FL,Miami-Dade,United States,25.74025448100008,-80.21397065399998,mercymiami.com/professionals/school-of-practical-nursing
442073,Lincoln Technical Institute-Paramus,Paramus,NJ,Bergen,United States,40.915146410000034,-74.05770581799999,lincolntech.edu/campus/paramus-nj
448071,Aveda Institute-New York,New York,NY,New York,United States,40.725812692000034,-74.00483227899997,avedaarts.edu
195289,Samaritan Hospital School Of Nursing,Troy,NY,Rensselaer,United States,42.73340023900005,-73.67212110699995,sphp.com/careers/schools-of-nursing
468893,Vanguard College Of Cosmetology-Metairie,Metairie,LA,Jefferson,United States,30.00477873700004,-90.16330606399998,paulmitchell.edu/metairie
193858,New York School For Medical And Dental Assistants,Long Island City,NY,Queens,United States,40.744291,-73.931391,nysmda.com
366191,Universal Technical Institute Of Illinois Inc,Lisle,IL,Dupage,United States,41.80697,-88.104,uti.edu
373696,Rob Roy Academy-Worcester,Worcester,MA,Worcester,United States,42.26369430900007,-71.80761987199998,rob-roy.com
107664,University Of Arkansas-Pulaski Technical College,North Little Rock,AR,Pulaski,United States,34.782783435000056,-92.29918435099997,uaptc.edu
442523,Alaska Christian College,Soldotna,AK,Kenai Peninsula,United States,60.49045917800004,-151.13600548699998,alaskacc.edu
459374,Universal Spa Training Academy,Downers Grove,IL,Dupage,United States,41.79600833400008,-87.99383956499997,spatrainingacademy.edu
477996,National American University-Bellevue,Bellevue,NE,Sarpy,United States,41.14151878700005,-95.96737135899996,national.edu/locations/campuses/bellevue
480037,Mycomputercareer.Edu-Raleigh,Raleigh,NC,Wake,United States,35.76784141200005,-78.72718634699999,mycomputercareer.edu
260965,Educators Of Beauty College Of Cosmetology-Rockford,Rockford,IL,Winnebago,United States,42.298831,-88.997799,educatorsofbeauty.com
461643,Bergin University Of Canine Studies,Penngrove,CA,Sonoma,United States,38.28912486200005,-122.66691065199996,berginu.edu
461704,Capilo School Of Hair Design,Augusta,ME,Kennebec,United States,44.31770284000004,-69.77681297199996,capilo.com
238661,Edgewood College,Madison,WI,Dane,United States,43.05872676600006,-89.42212210799994,edgewood.edu
444565,Culinary Institute Inc,Houston,TX,Harris,United States,29.823622777000026,-95.37863300599996,culinaryinstitute.edu
214175,Muhlenberg College,Allentown,PA,Lehigh,United States,40.597476579000045,-75.50828283699997,muhlenberg.edu
222877,Arlington Baptist University,Arlington,TX,Tarrant,United States,32.73948930200004,-97.15602414999996,abu.edu
212328,Empire Beauty School-Lehigh Valley,Whitehall,PA,Lehigh,United States,40.63006008700006,-75.48547078099995,empire.edu
110538,California State University-Chico,Chico,CA,Butte,United States,39.728003,-121.846333,csuchico.edu
145637,University Of Illinois Urbana-Champaign,Champaign,IL,Champaign,United States,40.108311601000025,-88.22848166499995,illinois.edu
148593,St. John'S College-Department Of Nursing,Springfield,IL,Sangamon,United States,39.80744215800007,-89.64533865499999,sjcs.edu
159513,Aveda Arts & Sciences Institute-Baton Rouge,Baton Rouge,LA,East Baton Rouge,United States,30.425546375000067,-91.05380515699994,avedaarts.edu
123679,Concorde Career College-Garden Grove,Garden Grove,CA,Orange,United States,33.77474109900004,-117.93839487799994,concorde.edu/campus/garden-grove-california
125897,Woodbury University,Burbank,CA,Los Angeles,United States,34.20852199500007,-118.34110106799994,woodbury.edu
128151,Pickens Technical College,Aurora,CO,Arapahoe,United States,39.72370061100003,-104.789670619,pickenstech.org
153445,Hawkeye Community College,Waterloo,IA,Black Hawk,United States,42.43000309100006,-92.33063314099996,hawkeyecollege.edu
201681,Central School Of Practical Nursing,Independence,OH,Cuyahoga,United States,41.397090209000055,-81.65698130399994,cspnohio.edu
417275,Stratford School For Aviation Maintenance Technicians,Stratford,CT,Fairfield,United States,41.24974899100005,-73.04635931499996,cttech.org/platt
442976,Brighton Center'S Center For Employment Training,Newport,KY,Campbell,United States,39.09255052900005,-84.49012652599998,brightoncenter.com
444200,Harris School Of Business-Dover Campus,Dover,DE,Kent,United States,39.15428,-75.546609,harrisschool.edu
444264,Cambridge Technical Institute,San Juan,PR,San Juan,United States,18.399839,-66.052442,cti.edu
446288,Paul Mitchell The School-Great Lakes,Port Huron,MI,St. Clair,United States,42.97635074000004,-82.45922992499999,paulmitchell.edu/porthuron
448752,Collegeamerica-Colorado Springs,Colorado Springs,CO,El Paso,United States,38.862312,-104.758069,collegeamerica.edu
448983,Harris School Of Business-Linwood Campus,Linwood,NJ,Atlantic,United States,39.34805828400005,-74.58052378499997,harrisschool.edu/campus-locations/linwood-nj
129215,Eastern Connecticut State University,Willimantic,CT,Windham,United States,41.72167347700002,-72.21875264999994,easternct.edu
130989,Goldey-Beacom College,Wilmington,DE,New Castle,United States,39.74105499500007,-75.68884047499995,gbc.edu
141565,University Of Hawaii At Hilo,Hilo,HI,Hawaii,United States,19.701854140000023,-155.08132860299995,hilo.hawaii.edu
154721,Bethany College,Lindsborg,KS,Mcpherson,United States,38.5786,-97.67317272699997,bethanylb.edu
178369,Missouri Valley College,Marshall,MO,Saline,United States,39.10852158400007,-93.19065424299998,moval.edu
178402,University Of Missouri-Kansas City,Kansas City,MO,Jackson,United States,39.03372422500007,-94.57659992599996,umkc.edu
401223,World Mission University,Los Angeles,CA,Los Angeles,United States,34.06494221100007,-118.28962537499996,wmu.edu
148982,Spertus College,Chicago,IL,Cook,United States,41.87402684200004,-87.62461886499995,spertus.edu
146676,Lincoln College,Lincoln,IL,Logan,United States,40.15678672100006,-89.36145172699997,lincolncollege.edu
160649,Southern University At Shreveport,Shreveport,LA,Caddo,United States,32.54563249200004,-93.83455874699996,susla.edu
491835,Salon Professional Academy Of San Antonio,San Antonio,TX,Bexar,United States,29.59361147800007,-98.47007376299996,tspasanantonio.com
493567,Bellasa Professional Institute,North Miami,FL,Miami-Dade,United States,25.890157,-80.183799,bellasa.edu
493682,American Institute Of Healthcare & Technology,Stratford,CT,Fairfield,United States,41.170738,-73.150918,aiht.edu
493868,A Better U Beauty Barber Academy,Albuquerque,NM,Bernalillo,United States,35.11060697400006,-106.58396072199996,abuacademy.com
493822,College Unbound,Providence,RI,Providence,United States,41.80648236500008,-71.41299421799994,collegeunbound.org
494250,Valley College-Cleveland,Cleveland,OH,Cuyahoga,United States,41.41933257900007,-81.74761861899998,valley.edu
371052,Fortis College,Mobile,AL,Mobile,United States,30.684253,-88.205576,fortis.edu
102030,Bishop State Community College,Mobile,AL,Mobile,United States,30.69397160400007,-88.05698240099997,bishop.edu
487506,Aveda Institute-Madison,Madison,WI,Dane,United States,43.07297105300006,-89.39874522399998,avedainstitutemadison.com
485564,Infinity College,Lafayette,LA,Lafayette,United States,30.21286,-92.007911,infinitycollege.edu
485768,Atlantis University,Miami,FL,Miami-Dade,United States,25.78897478500005,-80.18944553499995,atlantisuniversity.edu
132693,Eastern Florida State College,Cocoa,FL,Brevard,United States,28.384790518000045,-80.75812974599995,easternflorida.edu
146472,College Of Lake County,Grayslake,IL,Lake,United States,42.35588101300005,-88.01239210899996,clcillinois.edu
148991,Spoon River College,Canton,IL,Fulton,United States,40.527896,-90.072216,src.edu
241225,Universidad Central De Bayamon,Bayamón,PR,Bayamón,United States,18.398863817000063,-66.18077263099997,ucb.edu.pr
167525,Quincy College,Quincy,MA,Norfolk,United States,42.25300740700004,-71.00331918499995,quincycollege.edu
457767,National Career Institute,East Orange,NJ,Essex,United States,40.761349438000025,-74.22227897099998,nciedu.com
198039,Blue Ridge Community College,Flat Rock,NC,Henderson,United States,35.3080401,-82.4255439,blueridge.edu
104179,University Of Arizona,Tucson,AZ,Pima,United States,32.23286612800007,-110.95008586199998,arizona.edu
204769,The Spa School,Columbus,OH,Franklin,United States,40.06538397600008,-83.01866737399996,salonschools.ohiostate.edu
137777,Talmudic College Of Florida,Miami Beach,FL,Miami-Dade,United States,25.812415,-80.136159,talmudicu.edu
239318,Milwaukee School Of Engineering,Milwaukee,WI,Milwaukee,United States,43.04536436600006,-87.90769087799998,msoe.edu
165112,Bunker Hill Community College,Boston,MA,Suffolk,United States,42.374806,-71.069263,bhcc.mass.edu
229656,Vogue College Of Cosmetology-Mcallen,Mcallen,TX,Hidalgo,United States,26.232656263000024,-98.22302200199994,vogue.edu
441760,Lamar Institute Of Technology,Beaumont,TX,Jefferson,United States,30.04788474300005,-94.07712624399994,lit.edu
461351,Manhattan Institute,New York,NY,New York,United States,40.754262,-73.977344,manhattaninstitute.edu
218441,North Greenville University,Tigerville,SC,Greenville,United States,35.069758,-82.37026,ngu.edu
450599,Empire Beauty School-Richmond,Richmond,VA,Henrico,United States,37.63602166700008,-77.54893260299997,empire.edu
418588,Northern Tier Career Center,Towanda,PA,Bradford,United States,41.801732,-76.48739,ntccschool.org
445188,University Of California-Merced,Merced,CA,Merced,United States,37.36623734600005,-120.42494415299996,ucmerced.edu
137096,Santa Fe College,Gainesville,FL,Alachua,United States,29.682470481000053,-82.43261402899998,sfcollege.edu
142559,College Of Southern Idaho,Twin Falls,ID,Twin Falls,United States,42.58283605900005,-114.47313042399998,csi.edu
428392,Klamath Community College,Klamath Falls,OR,Klamath,United States,42.19502777500003,-121.69885519399998,klamathcc.edu
476887,Elaine Sterling Institute,Atlanta,GA,Fulton,United States,33.88686852400008,-84.38218052599996,elainesterling.com
480310,Empire Beauty School-Glen Burnie,Glen Burnie,MD,Anne Arundel,United States,39.20309946100008,-76.61599043799998,empire.edu
207670,Rose State College,Midwest City,OK,Oklahoma,United States,35.444315336000045,-97.4139245,rose.edu
481890,Ross Medical Education Center-Erlanger,Erlanger,KY,Kenton,United States,39.0309952000001,-84.61629297799999,rosseducation.edu
219408,Sisseton Wahpeton College,Sisseton,SD,Roberts,United States,45.562667,-97.060872,swcollege.edu
227225,Northeast Texas Community College,Mount Pleasant,TX,Titus,United States,33.104937,-94.881862,ntcc.edu
484066,Medquest College,Louisville,KY,Jefferson,United States,38.224517,-85.560651,medquestcollege.edu
222062,Walters State Community College,Morristown,TN,Hamblen,United States,36.21390415500008,-83.26219099699995,ws.edu
223898,Cisco College,Cisco,TX,Eastland,United States,32.40061106500008,-98.98545018199997,cisco.edu
483975,Alabama College Of Osteopathic Medicine,Dothan,AL,Houston,United States,31.206294,-85.340805,acom.edu
225371,Hill College,Hillsboro,TX,Hill,United States,32.013073054000074,-97.08648328799995,hillcollege.edu
237561,Monongalia County Technical Education Center,Morgantown,WV,Monongalia,United States,39.61116481200003,-79.95727510199998,mtec.mono.k12.wv.us/18/home
125499,West Valley College,Saratoga,CA,Santa Clara,United States,37.26184782400003,-122.01008618999998,westvalley.edu
120421,Oxnard College,Oxnard,CA,Ventura,United States,34.16474150500005,-119.15733120299996,oxnardcollege.edu
448239,Careers Unlimited,Orem,UT,Utah,United States,40.27485258400003,-111.73139963299997,ucdh.edu
450960,Healthcare Career College,Paramount,CA,Los Angeles,United States,33.88078532800006,-118.14167406999997,healthcarecareercollege.edu
482699,South Georgia State College,Douglas,GA,Coffee,United States,31.497728782000024,-82.85443302099998,sgsc.edu
454652,Paul Mitchell The School-Birmingham,Hoover,AL,Jefferson,United States,33.388825041000075,-86.80818282899997,birmingham.paulmitchell.edu
210438,University Of Western States,Portland,OR,Multnomah,United States,45.54299662400007,-122.52328743899994,uws.edu
137245,Sheridan Technical College,Hollywood,FL,Broward,United States,26.0317358,-80.19802387499999,sheridantechnicalcollege.edu
161493,Empire Beauty School-Maine,Portland,ME,Cumberland,United States,43.66788542400008,-70.25815440499997,empire.edu
167792,Bard College At Simon'S Rock,Great Barrington,MA,Berkshire,United States,42.209241,-73.380008,simons-rock.edu
181297,Nebraska Methodist College Of Nursing & Allied Health,Omaha,NE,Douglas,United States,41.26597269400003,-96.04851052199996,methodistcollege.edu
181376,Nebraska Christian College Of Hope International University,Papillion,NE,Sarpy,United States,41.12314048800005,-96.09437042599995,nechristian.edu
181941,Career College Of Northern Nevada,Sparks,NV,Washoe,United States,39.540932518000034,-119.71940474999997,ccnn.edu
184870,Harris School Of Business-Cherry Hill Campus,Cherry Hill,NJ,Camden,United States,39.942536,-75.025191,harrisschool.edu
190239,Empire Beauty School-Queens,Astoria,NY,Queens,United States,40.759165,-73.919106,empire.edu
241836,Edp University Of Puerto Rico Inc-San Sebastian,San Sebastian,PR,San Sebastián,United States,18.338043147000064,-66.99227528599994,edpuniversity.edu
242626,Inter American University Of Puerto Rico-Aguadilla,Aguadilla,PR,Aguadilla,United States,18.467886,-67.121671,aguadilla.inter.edu
434441,Florida College Of Integrative Medicine,Orlando,FL,Orange,United States,28.463590372000056,-81.40175714999998,fcim.edu
480790,Rocky Vista University,Parker,CO,Douglas,United States,39.563515892000055,-104.81503364199996,rvu.edu
480912,Gemini School Of Visual Arts & Communication,Cedar Park,TX,Williamson,United States,30.50915,-97.846121,geminischool.com
480930,Paul Mitchell The School-Woodbridge,Woodbridge,VA,Prince William,United States,38.63536376800005,-77.29329896899998,paulmitchell.edu/woodbridge
208512,Sumner College,Portland,OR,Multnomah,United States,45.574838973000055,-122.576779,sumnercollege.edu
366395,Suffolk County Community College,Selden,NY,Suffolk,United States,40.848962991000064,-73.05616540699998,sunysuffolk.edu
419244,Atlanta Institute Of Music And Media,Duluth,GA,Gwinnett,United States,33.96069505400004,-84.10504412899996,aimm.edu
211431,Carlow University,Pittsburgh,PA,Allegheny,United States,40.43985095800008,-79.96392665099995,carlow.edu
211316,Bucks County School Of Beauty Culture Inc,Feasterville,PA,Bucks,United States,40.16644130900005,-75.00705148199995,bcsbc.edu
459408,Tri County Regional Vocational Technical High School,Franklin,MA,Norfolk,United States,42.09495702800007,-71.42157659799994,tri-county.us
141574,University Of Hawaii At Manoa,Honolulu,HI,Honolulu,United States,21.29732382400005,-157.81620199199998,manoa.hawaii.edu
171146,University Of Michigan-Flint,Flint,MI,Genesee,United States,43.01990228400007,-83.68766302599994,umflint.edu
201982,Scott College Of Cosmetology,Wheeling,WV,Ohio,United States,40.064690650000045,-80.72181444699999,scottcollegeofcosmetology.edu
175573,Copiah-Lincoln Community College,Wesson,MS,Copiah,United States,31.690059672000075,-90.39913307499997,colin.edu
455813,Pontifical John Paul Ii Institute For Studies On Marriage And Family,Washington,DC,District Of Columbia,United States,38.93271600300005,-76.99789618499995,johnpaulii.edu
191959,Island Drafting And Technical Institute,Amityville,NY,Suffolk,United States,40.675466,-73.417123,idti.edu
194259,Otsego Area Boces-Practical Nursing Program,Oneonta,NY,Otsego,United States,42.58915,-74.922225,oncboces.org
197692,Yeshiva Shaar Hatorah,Kew Gardens,NY,Queens,United States,40.703857,-73.8343,shaarhatorah.edu
202888,Gerbers Akron Beauty School,Akron,OH,Summit,United States,41.113755,-81.576144,akronbeautyschool.com
418968,Tint School Of Makeup And Cosmetology-Dallas,Grand Prairie,TX,Dallas,United States,32.708337,-97.001678,tintdallasmakeupcosmetologyschool.com
420802,Arizona Board Of Regents,Phoenix,AZ,Maricopa,United States,33.47024463500003,-112.07455981099996,azregents.edu
447449,Academy Of Hair Design-Jasper,Jasper,TX,Jasper,United States,30.908631,-94.004883,lufkinhairdesign.com
447698,Phoenix Institute Of Herbal Medicine & Acupuncture,Phoenix,AZ,Maricopa,United States,33.522890387000075,-112.06878291099996,pihma.edu
105589,Prescott College,Prescott,AZ,Yavapai,United States,34.54479148400003,-112.47653288599996,prescott.edu
154341,La James International College-Iowa City,Iowa City,IA,Johnson,United States,41.663776,-91.532238,ljic.edu
240338,Wisconsin Lutheran College,Milwaukee,WI,Milwaukee,United States,43.036943163000046,-88.02271806199997,wlc.edu
443173,Mr John'S School Of Cosmetology & Nails-Jacksonville,Jacksonville,IL,Morgan,United States,39.71467755500004,-90.23011861299996,mrjohns.com
444228,Legrand Institute Of Cosmetology Inc,Camden,SC,Kershaw,United States,34.27161964600003,-80.60899606199996,legrandinstitute.com
204501,Oberlin College,Oberlin,OH,Lorain,United States,41.29473991500004,-82.22178623399998,oberlin.edu
209746,Portland Community College,Portland,OR,Multnomah,United States,45.43838241700007,-122.73202254599994,pcc.edu
216746,Welder Training And Testing Institute,Allentown,PA,Lehigh,United States,40.62646949300006,-75.4472635,wtti.edu
147828,Olivet Nazarene University,Bourbonnais,IL,Kankakee,United States,41.15620286600006,-87.87317774799999,olivet.edu
151786,Marian University,Indianapolis,IN,Marion,United States,39.81533988000007,-86.20459911699999,marian.edu
366401,Las Positas College,Livermore,CA,Alameda,United States,37.71115061400008,-121.80113610299998,laspositascollege.edu
375966,Eastern Center For Arts And Technology,Willow Grove,PA,Montgomery,United States,40.15843710300004,-75.10864896199996,eastech.org
127617,Morgan Community College,Fort Morgan,CO,Morgan,United States,40.258792,-103.771822,morgancc.edu
118684,Mendocino College,Ukiah,CA,Mendocino,United States,39.18970274000003,-123.22833960199996,mendocino.edu
454698,Mayfield College,Cathedral City,CA,Riverside,United States,33.792119,-116.458826,mayfieldcollege.edu
159009,Grambling State University,Grambling,LA,Lincoln,United States,32.52270195400007,-92.71736695799996,gram.edu
163541,Hair Academy,New Carrollton,MD,Prince George'S,United States,38.956205,-76.869467,hairacademymd.com
177870,Lake Career And Technical Center,Camdenton,MO,Camden,United States,38.005507,-92.732979,lctc.camdentonschools.org
119553,National Holistic Institute,Emeryville,CA,Alameda,United States,37.84189757500008,-122.287671731,nhi.edu
115755,Humboldt State University,Arcata,CA,Humboldt,United States,40.87545198300006,-124.07725509099998,humboldt.edu
148496,Dominican University,River Forest,IL,Cook,United States,41.9028337,-87.82187217499995,dom.edu
434344,Toni & Guy Hairdressing Academy-Worcester,Worcester,MA,Worcester,United States,42.284819,-71.808248,worcester.toniguy.edu
454786,Laurus College,San Luis Obispo,CA,San Luis Obispo,United States,35.26820002900007,-120.669518623,lauruscollege.edu
417008,Paul Mitchell The School-Huntsville,Madison,AL,Madison,United States,34.68126740800005,-86.75256322699994,paulmitchell.edu/huntsville
445054,Toyota Technological Institute At Chicago,Chicago,IL,Cook,United States,41.78445839600005,-87.59266085199994,ttic.edu
106892,Eastern College Of Health Vocations-Little Rock,Little Rock,AR,Pulaski,United States,34.751263,-92.341824,easterncollege.edu
152798,Allen College,Waterloo,IA,Black Hawk,United States,42.530084387000045,-92.34014834999994,allencollege.edu
176008,Mississippi Delta Community College,Moorhead,MS,Sunflower,United States,33.44490606300008,-90.50205284299994,msdelta.edu
133960,The College Of The Florida Keys,Key West,FL,Monroe,United States,24.58274840200005,-81.7444595,cfk.edu
187046,Thomas Edison State University,Trenton,NJ,Mercer,United States,40.22041699000005,-74.76863171099995,tesu.edu
136774,Ringling College Of Art And Design,Sarasota,FL,Sarasota,United States,27.36013426100004,-82.54823588599999,ringling.edu
138938,Atlanta School Of Massage,Atlanta,GA,Dekalb,United States,33.92222437700008,-84.31126411199995,atlantaschoolofmassage.com
186201,Ramapo College Of New Jersey,Mahwah,NJ,Bergen,United States,41.08092722300006,-74.17408158699999,ramapo.edu
213491,Lansdale School Of Cosmetology Inc,Lansdale,PA,Montgomery,United States,40.24333794600005,-75.28616577099996,lansdalecosmetology.com
191533,Hartwick College,Oneonta,NY,Otsego,United States,42.45917772400003,-75.07168376099997,hartwick.edu
195243,St. Thomas Aquinas College,Sparkill,NY,Rockland,United States,41.04219162700008,-73.93684151999997,stac.edu
490692,Cincinnati School Of Barbering & Hair Design,Cincinnati,OH,Hamilton,United States,39.206972,-84.582933,cincinnatischoolofbarbering.com
492953,Salon Success Academy-West Covina,West Covina,CA,Los Angeles,United States,34.070568,-117.933801,salonsuccessacademy.com
117283,Latin American Bible Institute,La Puente,CA,Los Angeles,United States,34.031171054000026,-117.98952151799996,labi.edu
469920,Unitech Training Academy-Lake Charles,Lake Charles,LA,Calcasieu,United States,30.20423922200007,-93.19284630799996,unitechtrainingacademy.com
485537,University Of Texas Health Science Center At Tyler,Tyler,TX,Smith,United States,32.42611217900003,-95.21267158399996,uthct.edu
485704,River Valley School Of Massage,Russellville,AR,Pope,United States,35.283128410000074,-93.11078712499994,rvsmassage.com
